id,source,name,lat,lon,city_display,city_norm,state,oven_label,oven_confidence,oven_evidence,website,dup_count
osm:node/10000660268,osm,Sauce Pizzeria,40.7518526,-73.9958286,,,,unknown,0.0,,,1
osm:node/10003096504,osm,Antonio's Pizza,39.7564644,-89.6183477,Springfield,springfield,IL,unknown,0.0,,http://www.antonios-pizza.com/,1
osm:node/10003096505,osm,Antonio's Pizza,39.7956364,-89.7052934,Springfield,springfield,IL,unknown,0.0,,http://www.antonios-pizza.com/,1
osm:node/10003442217,osm,Marcello's Pizzeria & Ristorante,40.2244133,-77.1787523,,,,unknown,0.0,,https://www.marcelloscarlisle.com/,1
osm:node/10003578247,osm,Mountain Mike's,37.7247236,-121.4372605,,,,unknown,0.0,,,1
osm:node/10004399103,osm,Papa John's,45.4339197,-122.5589899,,,,unknown,0.0,,https://locations.papajohns.com/united-states/or/97015/clackamas/10219-se-sunnyside-rd,1
osm:node/10004562586,osm,Domino's,45.4338456,-122.5607523,,,,unknown,0.0,,https://pizza.dominos.com/oregon/clackamas/10117-se-sunnyside-road,1
osm:node/10005175512,osm,Pieology Pizzeria,33.8691679,-118.058387,,,,unknown,0.0,,,1
osm:node/10005198504,osm,Hunt Brothers Pizza,38.3750759,-89.3719522,,,,unknown,0.0,,,1
osm:node/10005620325,osm,Domino's,38.6124285,-90.0457997,Caseyville,caseyville,IL,unknown,0.0,,https://pizza.dominos.com/illinois/caseyville/2190-patricia-ct,1
osm:node/10006922971,osm,MOD Pizza,45.3241388,-122.5796409,Oregon City,oregon,,unknown,0.0,,,1
osm:node/10007777144,osm,Papa John's,38.3336183,-75.2116991,Berlin,berlin,MD,unknown,0.0,,https://locations.papajohns.com/united-states/md/21811/berlin/10132-old-ocean-city-blvd,1
osm:node/10008162923,osm,Outta Sight Pizza,37.7818381,-122.4171104,San Francisco,san francisco,CA,unknown,0.0,,,1
osm:node/10010431598,osm,Downtown Pizza Lounge,33.4484752,-112.0714804,Phoenix,phoenix,AZ,unknown,0.0,,,1
osm:node/10011826901,osm,Pizza Hut,45.425325,-122.512925,Happy Valley,happy valley,OR,unknown,0.0,,https://locations.pizzahut.com/or/happy-valley/14679-se-sunnyside-rd,1
osm:node/10012251965,osm,Sam's Italian Ristorante,41.0155723,-73.8742562,Dobbs Ferry,dobbs ferry,NY,unknown,0.0,,https://www.samsitalianristorante.com,1
osm:node/10012251982,osm,The Brick Oven Pizza,41.0160656,-73.8740541,Dobbs Ferry,dobbs ferry,NY,wood_or_coal,0.45,solid:'brick oven',https://www.thebrickovenpizzamenu.com,1
osm:node/10012556545,osm,Little Caesars,38.1150554,-121.2903232,,,,unknown,0.0,,https://littlecaesars.com/en-us/store/3436/,1
osm:node/1001388189,osm,Papa John's,38.7615488,-121.3091909,,,,unknown,0.0,,,1
osm:node/10013898306,osm,Blaze Pizza,34.6751128,-118.1483971,,,,unknown,0.0,,,1
osm:node/10013935100,osm,Domino's,34.6752409,-118.1474519,Lancaster,lancaster,CA,unknown,0.0,,https://pizza.dominos.com/california/lancaster/885-w-avenue-k,1
osm:node/10014394576,osm,Toledo's Pizza II,39.9146094,-77.905214,,,,unknown,0.0,,https://toledos2pizza.e-tab.com/todelos2/venue/60ede266b84f802da8915cd7/menu,1
osm:node/10014428083,osm,Mamma's PIZZA,39.9286825,-77.9893452,,,,unknown,0.0,,https://www.facebook.com/Mammas-PIZZA-175132869349464/,1
osm:node/1001538759,osm,Round Table Pizza,38.7541406,-121.3109671,Roseville,roseville,,unknown,0.0,,https://www.roundtablepizza.com/,1
osm:node/1001559626,osm,Original Pete's Pizza Pasta Grill,38.7596159,-121.3078258,,,,unknown,0.0,,,1
osm:node/10019276438,osm,Domino's,41.2122886,-79.3785664,Clarion,clarion,PA,unknown,0.0,,https://pizza.dominos.com/pennsylvania/clarion/865-main-street,1
osm:node/10019482966,osm,Century One Pizza,40.7244841,-74.0699319,Jersey City,jersey,NJ,unknown,0.0,,,1
osm:node/10020369358,osm,Sbarro,41.6195349,-87.8486242,,,,unknown,0.0,,,1
osm:node/10025662309,osm,The Bulldog,45.0628692,-83.4326967,Alpena,alpena,MI,unknown,0.0,,https://bobsbullpen.com/,1
osm:node/10028204546,osm,Sal's Pizza,40.7528028,-75.6051222,Slatington,slatington,,unknown,0.0,,https://www.salspizzafamilyrestaurant.com/,1
osm:node/10028601117,osm,Oregon Coast Pizzeria,43.6955565,-124.1225179,,,,unknown,0.0,,,1
osm:node/10028625509,osm,MOD Pizza,40.7844748,-124.1839761,Eureka,eureka,CA,unknown,0.0,,https://locations.modpizza.com/usa/ca/eureka/2626-broadway-st,1
osm:node/1002880708,osm,Lombardi's Pizza,40.7215933,-73.9956147,New York,new york,NY,unknown,0.0,,https://www.firstpizza.com/,1
osm:node/10030484717,osm,Orchard Farmstand,41.5735648,-82.8326182,,,,unknown,0.0,,https://orchardoncatawba.com/,1
osm:node/10032069179,osm,Domino's,46.4543623,-90.1684121,Ironwood,ironwood,MI,unknown,0.0,,https://pizza.dominos.com/michigan/ironwood/135-e-aurora-st,1
osm:node/10032231095,osm,Francesca's Brick Oven Pizzeria,42.1474914,-83.2654714,Brownstown Township,brownstown township,MI,wood_or_coal,0.45,solid:'brick oven',,1
osm:node/10032231104,osm,Mimi's Pizzeria,42.1102952,-83.2854345,,,,unknown,0.0,,,1
osm:node/10032623917,osm,Pizza Friendly Pizza,41.9006043,-87.6867469,Chicago,chicago,IL,unknown,0.0,,https://www.pizzafriendlypizza.com/,1
osm:node/10032688923,osm,South Bay Pizza,33.8227616,-118.3851088,,,,unknown,0.0,,,1
osm:node/1003368289,osm,Round Table Pizza,38.7947212,-121.33054,,,,unknown,0.0,,,1
osm:node/10035337518,osm,Fringe Pizza,40.028724,-105.255841,Boulder,boulder,CO,unknown,0.0,,https://fringepizza.com/,1
osm:node/10037774344,osm,Mark's Pizzeria,42.9043494,-76.833147,Seneca Falls,seneca falls,NY,unknown,0.0,,https://www.markspizzeria.com/locations/seneca-falls,1
osm:node/10038084944,osm,Little Caesars,40.153512,-105.110234,,,,unknown,0.0,,https://littlecaesars.com/en-us/store/9120/,1
osm:node/10038141104,osm,Round Table Pizza,37.9743029,-120.3430401,,,,unknown,0.0,,,1
osm:node/10038241832,osm,Little Caesars,42.9259147,-85.6488049,,,,unknown,0.0,,https://littlecaesars.com/en-us/store/1378/,1
osm:node/10038320992,osm,Little Caesars,33.9751046,-117.3501037,,,,unknown,0.0,,https://littlecaesars.com/en-us/store/7818/,1
osm:node/10038519548,osm,Round Table Pizza,40.9426012,-124.1004779,,,,unknown,0.0,,,1
osm:node/10038519549,osm,Papa Murphy's,40.9422335,-124.1005123,,,,unknown,0.0,,,1
osm:node/10038519550,osm,Little Caesars,40.9414762,-124.1004514,,,,unknown,0.0,,https://littlecaesars.com/en-us/store/11709/,1
osm:node/10039787318,osm,The Pizza Bar,39.7546194,-104.9901884,Denver,denver,CO,unknown,0.0,,https://thepizzabardenver.com/,1
osm:node/10040382801,osm,Papa Murphy's,39.6237691,-105.129812,Littleton,littleton,CO,unknown,0.0,,https://locations.papamurphys.com,1
osm:node/10041139168,osm,Papa Murphy's,40.5836987,-124.145042,,,,unknown,0.0,,,1
osm:node/10041139170,osm,Round Table Pizza,40.5823752,-124.1458013,,,,unknown,0.0,,,1
osm:node/10043897061,osm,Barb's Pizza,41.6066243,-72.6784055,,,,unknown,0.0,,,1
osm:node/10043897064,osm,Zerio's,41.6028144,-72.6851253,,,,unknown,0.0,,,1
osm:node/10043972370,osm,Pizza Factory,40.493938,-124.1024775,,,,unknown,0.0,,,1
osm:node/10046090638,osm,Little Nippers 2,40.450397,-79.9508704,Pittsburgh,pittsburgh,PA,unknown,0.0,,,1
osm:node/10046326498,osm,The Liberty Pub,43.4060186,-124.2238354,,,OR,unknown,0.0,,https://www.thelibpub.com/,1
osm:node/10047749875,osm,Weekend Dreams Pizza,36.7942761,-119.8721065,,,,unknown,0.0,,,1
osm:node/10048074813,osm,HomeSlyce,39.2132605,-76.936636,Clarksville,clarksville,MD,unknown,0.0,,,1
osm:node/10048195422,osm,Oreland Pizzaria,40.1171161,-75.1833352,,,,unknown,0.0,,,1
osm:node/10048282885,osm,Pizza Town I & Italian Restaurant,40.4139001,-76.4738991,,,,unknown,0.0,,https://www.pizzatownitalianrestaurant.com,1
osm:node/10048544481,osm,Pizza Hut,34.0116525,-117.8863537,West Covina,west covina,CA,unknown,0.0,,https://locations.pizzahut.com/ca/west-covina/3646-nogales-st,1
osm:node/10048569718,osm,Famiglia Bistro Pizzeria,40.4280617,-74.248334,Matawan,matawan,NJ,unknown,0.0,,https://famigliabistropizzeria.com/,1
osm:node/10049879353,osm,John & Maria's Pizzeria & Restaurant,41.3245715,-72.834448,East Haven,east haven,CT,unknown,0.0,,http://www.johnandmariaspizza.com,1
osm:node/10049983742,osm,Papa Romano's,42.2430514,-83.2212914,,,,unknown,0.0,,,1
osm:node/10049983910,osm,Toarmina's Pizza,42.2266702,-83.2302732,,,,unknown,0.0,,,1
osm:node/10050940867,osm,Pizza Tower,39.5766347,-76.0668115,Perryville,perryville,MD,unknown,0.0,,http://www.pizzatowermdonline.com/,1
osm:node/10051016022,osm,Figaro's Pizza,43.6723256,-121.501376,La Pine,la pine,OR,unknown,0.0,,,1
osm:node/10054309670,osm,Papa Murphy's,42.2074484,-121.7503966,,,,unknown,0.0,,,1
osm:node/10056678093,osm,Alta Via Pizzeria,40.4567017,-79.9160574,Pittsburgh,pittsburgh,PA,unknown,0.0,,https://www.altaviapizzeria.com/,1
osm:node/1005932985,osm,Round Table Pizza,37.6796031,-121.7836776,,,,unknown,0.0,,,1
osm:node/10059607595,osm,Zeiderelli's Pizza,40.3892976,-77.0305789,Duncannon,duncannon,,unknown,0.0,,,1
osm:node/10060007205,osm,Mountain Mike's,38.2455324,-122.0199534,,,,unknown,0.0,,,1
osm:node/10060009172,osm,Round Table Pizza,38.2446789,-122.0212798,,,,unknown,0.0,,,1
osm:node/10061801988,osm,Snuzzels Pizza Shop,40.4694797,-75.7493854,,,,unknown,0.0,,,1
osm:node/1006231718,osm,Bortolami's Pizzeria,45.6932659,-122.6636858,,,,unknown,0.0,,,1
osm:node/10062565759,osm,Ambrosino's Pizzeria,40.5644381,-74.1336805,Staten Island,staten island,NY,unknown,0.0,,http://www.ambrosinospizzeria.com/,1
osm:node/10062764066,osm,Papa Murphy's,38.2454922,-122.0191834,,,,unknown,0.0,,,1
osm:node/10062764069,osm,Star Pizza,38.2445841,-122.0191935,,,,unknown,0.0,,,1
osm:node/10065496637,osm,Sir Pizza Treesdale,40.6683863,-80.0208789,,,,unknown,0.0,,,1
osm:node/10065580365,osm,Bacco Centro,40.2117699,-75.0111395,Richboro,richboro,PA,unknown,0.0,,https://baccocentro.com/,1
osm:node/10065639206,osm,Giovanna's Pizza,40.2951479,-75.845181,Reading,reading,PA,unknown,0.0,,https://www.giovannaspizzareading.com/,1
osm:node/10065946933,osm,Pizza Guys,37.8932981,-122.0598001,,,,unknown,0.0,,,1
osm:node/10067495440,osm,Little Caesars,38.3367849,-121.9699495,,,,unknown,0.0,,https://littlecaesars.com/en-us/store/9257/,1
osm:node/10067495442,osm,Round Table Pizza,38.336374,-121.9551577,,,,unknown,0.0,,,1
osm:node/10067495443,osm,Papa Murphy's,38.3365104,-121.9538073,Vacaville,vacaville,,unknown,0.0,,,1
osm:node/10067540215,osm,King's Roast Beef,42.5288022,-70.9041108,Salem,salem,MA,unknown,0.0,,https://www.kingsroastbeef.com,1
osm:node/10069842328,osm,Sagecliffe Pizza,47.098477,-119.9944277,,,,unknown,0.0,,,1
osm:node/10073864131,osm,Frank's Trattoria,40.73608,-73.9793659,,,,unknown,0.0,,https://frankstrattoriaonfirst.com,1
osm:node/10073933786,osm,Beggars Pizza,41.7476591,-87.5863477,Chicago,chicago,IL,unknown,0.0,,https://www.beggarspizza.com/locations/chicago-stony-island,1
osm:node/10073956274,osm,Beggars Pizza,41.7063587,-87.643252,Chicago,chicago,IL,unknown,0.0,,,1
osm:node/10073956279,osm,Beggars Pizza,41.8102082,-87.5921301,Chicago,chicago,IL,unknown,0.0,,,1
osm:node/10073962779,osm,Rosati's,41.8794018,-87.6267028,Chicago,chicago,IL,unknown,0.0,,https://myrosatischicago.com/,1
osm:node/10074073318,osm,Don Monaco Pizzeria & Catering,41.5963302,-87.847243,,,,unknown,0.0,,,1
osm:node/10076036107,osm,Crust Pizza Kitchen,43.1133431,-77.4850735,East Rochester,east rochester,NY,unknown,0.0,,,1
osm:node/10077719340,osm,Papa John's,47.882324,-122.2419516,Everett,everett,WA,unknown,0.0,,https://locations.papajohns.com/united-states/wa/98204/everett/617-128th-st-sw,1
osm:node/10078682962,osm,Home Slice,47.9496264,-124.3856553,,,,unknown,0.0,,,1
osm:node/10078964009,osm,Two Boots Pizza,40.7202096,-74.0435888,Jersey City,jersey,NJ,unknown,0.0,,,1
osm:node/10078996735,osm,"La Familia Katonah | Pizza |Katonah, NY",41.2552617,-73.6833035,Katonah,katonah,NY,unknown,0.0,,https://www.lafamiliakatonah.com,1
osm:node/10083674925,osm,Pie For the People NW,47.4214316,-121.411076,Snoqualmie Pass,snoqualmie pass,WA,unknown,0.0,,https://www.facebook.com/PieforthePeopleNW/,1
osm:node/10085749875,osm,Papa Murphy's,46.2273944,-119.265815,,,WA,unknown,0.0,,,1
osm:node/10085749877,osm,Greek Islands Cuisine,46.2273986,-119.2656064,,,WA,unknown,0.0,,,1
osm:node/10086430147,osm,Samuel Mancino's,41.5198328,-84.3059233,Archbold,archbold,OH,unknown,0.0,,https://samuelmancinosarchbold.com/,1
osm:node/10087571906,osm,Manzanita Litehouse Pub & Grub,45.7186037,-123.9179617,,,,unknown,0.0,,,1
osm:node/10088042215,osm,Mountain Mike's,38.4228402,-121.4155254,Elk Grove,elk grove,CA,unknown,0.0,,,1
osm:node/10090115000,osm,Best Italian Pizza,40.8622736,-73.8968509,,,,unknown,0.0,,,1
osm:node/10090200458,osm,Monroe Street Pizza,43.1834026,-88.990274,,,,unknown,0.0,,,1
osm:node/10090355456,osm,Straight From New York Pizza (South Commercial),44.9132466,-123.044586,Salem,salem,OR,unknown,0.0,,https://www.sfnypizza.com/south-commercial/,1
osm:node/10090539593,osm,Pizza Boli's,39.3128342,-76.6168379,Baltimore,baltimore,MD,unknown,0.0,,https://www.pizzabolis.com/locations/remington/,1
osm:node/10092163179,osm,Pronto Pizza,40.5585132,-74.1690049,,,,unknown,0.0,,,1
osm:node/10092297323,osm,Little Italy,40.7179522,-73.9574512,Brooklyn,brooklyn,NY,unknown,0.0,,,1
osm:node/10095498111,osm,Slopeside cafe,39.0692353,-108.1495979,,,,unknown,0.0,,,1
osm:node/10096025140,osm,Sbarro,40.1659781,-77.5972488,Newburg,newburg,PA,unknown,0.0,,https://sbarro.com/locations/PA/NEWBURG/Blue-Mountain-Travel-Plaza/,1
osm:node/10101217081,osm,Pizza Pie La Cantina Italiana,40.7161217,-74.0360171,Jersey City,jersey,NJ,unknown,0.0,,,1
osm:node/10104590669,osm,Piper's Mighty Good Pizza,45.4276753,-84.8950521,,,,unknown,0.0,,https://pipersmgpizza.com/,1
osm:node/10109091685,osm,Lorenzo's Pizzeria & Restaurant,41.2100536,-74.6078468,,,,unknown,0.0,,,1
osm:node/10109740887,osm,Revival Kitchen,43.2116647,-72.7865674,Londonderry,londonderry,VT,unknown,0.0,,,1
osm:node/10110259198,osm,Seabeck Pizza,47.4980617,-122.6478843,Port Orchard,port orchard,WA,unknown,0.0,,,1
osm:node/10112532080,osm,Tony's House of Pizza,42.2678532,-71.0161151,Quincy,quincy,MA,unknown,0.0,,,1
osm:node/10112958028,osm,Little Caesars,41.2601233,-77.0432955,,,,unknown,0.0,,https://littlecaesars.com/en-us/store/9929/,1
osm:node/10114596410,osm,Napoli Pizza,42.1043874,-88.0232091,,,,unknown,0.0,,,1
osm:node/10115205420,osm,Papa Murphy's,37.7234595,-121.944209,,,,unknown,0.0,,,1
osm:node/10115611873,osm,Sully's Pizza & Calzones,47.9453577,-122.3034987,Mukilteo,mukilteo,WA,unknown,0.0,,https://www.sullyspizza.com/,1
osm:node/10116520022,osm,Domino's,40.8545284,-73.9069798,Bronx,bronx,NY,unknown,0.0,,https://pizza.dominos.com/new-york/bronx/2075-jerome-ave,1
osm:node/10118131694,osm,Big E Pizza | FUGETABOUTIT!,33.790207,-118.1536669,,,,unknown,0.0,,,1
osm:node/10120011711,osm,Domino's,35.3136622,-120.8328999,Los Osos,los osos,CA,unknown,0.0,,https://pizza.dominos.com/california/los-osos/2084-9th-street-ste-a,1
osm:node/10121450029,osm,MidiCi - Wood Fired Pizza,33.9178447,-118.3536298,Hawthorne,hawthorne,CA,wood,1.0,wood:'wood fired'; wood:'wood fire',https://mymidici.com/stores/california/hawthorne/hawthorne/,1
osm:node/10121602170,osm,My Slice of Pie,33.4956618,-112.0010433,,,,unknown,0.0,,,1
osm:node/10121684582,osm,MidiCi - Wood Fired Pizza,33.9861653,-118.4419561,Marina Del Rey,marina del rey,CA,wood,1.0,wood:'wood fired'; wood:'wood fire',https://www.midicimdr.com/,1
osm:node/10121684583,osm,Midici,34.2806842,-119.2928187,Ventura,ventura,CA,unknown,0.0,,https://mymidici.com/stores/california/ventura/ventura/,1
osm:node/10121684584,osm,MidiCi - Wood Fired Pizza,36.5984144,-121.8946612,Monterey,monterey,CA,wood,1.0,wood:'wood fired'; wood:'wood fire',https://mymidici.com/stores/california/monterey/downtown-monterey/,1
osm:node/10121919365,osm,MidiCi - Wood Fired Pizza,41.8051255,-71.3414023,East Providence,east providence,RI,wood,1.0,wood:'wood fired'; wood:'wood fire',https://www.mymidicieastprovidence.com/,1
osm:node/10122770164,osm,MOD Pizza,32.1639694,-110.9906939,Tucson,tucson,AZ,unknown,0.0,,https://locations.modpizza.com/usa/az/tucson/1218-w-irvington-rd,1
osm:node/10122827492,osm,Extreme Pizza,37.6613218,-121.779817,,,,unknown,0.0,,,1
osm:node/10125207223,osm,Rush Street Pizza,33.2179036,-111.7916369,Chandler,chandler,AZ,unknown,0.0,,,1
osm:node/10125356057,osm,Valley Italian Pizza & Pasta,46.5690892,-120.4869524,,,,unknown,0.0,,,1
osm:node/10126851865,osm,Jet's Pizza,40.1196309,-83.0927982,Dublin,dublin,OH,unknown,0.0,,https://www.jetspizza.com/stores/ohio/dublin/3864-hard-rd,1
osm:node/1012753545,osm,Little Caesars,38.7691802,-121.3321015,,,,unknown,0.0,,https://littlecaesars.com/en-us/store/9309/,1
osm:node/1012786763,osm,Round Table Pizza,38.7786516,-121.28992,,,,unknown,0.0,,,1
osm:node/10128695206,osm,Domino's,40.0257404,-75.3267258,Bryn Mawr,bryn mawr,PA,unknown,0.0,,https://pizza.dominos.com/pennsylvania/bryn-mawr/1215-lancaster-ave,1
osm:node/10129192144,osm,Gus's Pizza,46.6025888,-120.5036181,,,,unknown,0.0,,,1
osm:node/10131740524,osm,Pizza Hut,33.2226395,-111.6331196,Queen Creek,queen creek,AZ,unknown,0.0,,https://locations.pizzahut.com/az/queen-creek/24871-s-ellsworth-road,1
osm:node/10131740535,osm,Mici Handcrafted Italian,33.2239961,-111.6351735,,,,unknown,0.0,,,1
osm:node/10131743864,osm,Jet's Pizza,38.5791017,-89.9843788,Fairview Heights,fairview heights,IL,unknown,0.0,,https://www.jetspizza.com/stores/illinois/fairview-heights/5200-n-illinois-st-suite-103/,1
osm:node/10134605473,osm,Bellucci's Pizzeria,40.7644002,-73.9163838,Astoria,astoria,NY,unknown,0.0,,https://belluccis.com/,1
osm:node/10135936420,osm,Amicas,38.5357036,-105.9921632,Salida,salida,CO,unknown,0.0,,https://amicassalida.com/,1
osm:node/10136652409,osm,Mondo Pizza,40.863078,-74.5727259,,,,unknown,0.0,,https://www.mondopizzanj.com/,1
osm:node/10137750445,osm,Giorgio's Italian Grill & Pizzeria,37.128701,-121.652772,Morgan Hill,morgan hill,,unknown,0.0,,https://www.giorgiositalianfood.com,1
osm:node/10138392689,osm,Andrea's Pizza,42.4616955,-71.141634,Winchester,winchester,MA,unknown,0.0,,,1
osm:node/10138492095,osm,Domino's,42.4578401,-71.138422,Winchester,winchester,MA,unknown,0.0,,https://pizza.dominos.com/massachusetts/winchester/743-main-street,1
osm:node/10138642216,osm,MOD Pizza,33.3768358,-112.1855564,Phoenix,phoenix,AZ,unknown,0.0,,https://locations.modpizza.com/usa/az/phoenix/7620-s-59th-ave,1
osm:node/10140375241,osm,Vegan Pizza,33.7884302,-117.9232832,,,,unknown,0.0,,,1
osm:node/10141342745,osm,Pizza Hut Express,36.8524517,-119.9517667,,,,unknown,0.0,,,1
osm:node/10141921601,osm,Geno's Giant Slice,33.1375707,-111.5392997,,,,unknown,0.0,,,1
osm:node/10141921838,osm,Pizza Hut,33.1613201,-111.5616907,Queen Creek,queen creek,AZ,unknown,0.0,,https://locations.pizzahut.com/az/queen-creek/561-e-bella-vista-rd,1
osm:node/10141981110,osm,Rosati's,33.161447,-111.5649461,,,,unknown,0.0,,,1
osm:node/10141981176,osm,Papa John's,33.1628456,-111.5640429,San Tan Valley,san tan valley,AZ,unknown,0.0,,https://locations.papajohns.com/united-states/az/85143/san-tan-valley/270-e-hunt-highway,1
osm:node/10141981319,osm,Little Caesars,33.1786147,-111.5841572,,,,unknown,0.0,,https://littlecaesars.com/en-us/store/12338/,1
osm:node/10141981368,osm,Hungry Howie's,33.1779204,-111.5858182,San Tan Valley,san tan valley,AZ,unknown,0.0,,,1
osm:node/1014212324,osm,Pizza Guys,37.5625314,-122.010141,,,,unknown,0.0,,,1
osm:node/10142152065,osm,Papa John's,41.2492581,-76.9838347,Williamsport,williamsport,PA,unknown,0.0,,https://locations.papajohns.com/united-states/pa/17701/williamsport/1100-washington-boulevard,1
osm:node/1014218807,osm,Mountain Mike's,37.5676247,-122.0238205,,,,unknown,0.0,,,1
osm:node/10143295481,osm,DiPaulo's Pizza,42.9909387,-78.8520848,Tonawanda,tonawanda,NY,unknown,0.0,,,1
osm:node/10145442139,osm,Pomodoro's Pasta & Pizza,41.740267,-74.0828045,,,,unknown,0.0,,,1
osm:node/10147269519,osm,Mario's Original,39.3631752,-76.6097905,Baltimore,baltimore,MD,unknown,0.0,,https://www.mariosoriginal.com/,1
osm:node/10147997821,osm,Blackjack Pizza,39.9543457,-104.9838014,Thornton,thornton,CO,unknown,0.0,,,1
osm:node/10148735756,osm,Rosati's,41.8795053,-87.800562,Oak Park,oak park,IL,unknown,0.0,,,1
osm:node/1014926508,osm,Papa Murphy's,38.9921054,-105.0485994,,,,unknown,0.0,,,1
osm:node/1014926732,osm,Domino's,38.9936296,-105.059631,Woodland Park,woodland park,CO,unknown,0.0,,https://pizza.dominos.com/colorado/woodland-park/605-midland-ave,1
osm:node/10151666949,osm,Carnegie Pizza,40.755372,-73.9877527,New York,new york,NY,unknown,0.0,,,1
osm:node/10151684347,osm,Alessio's Cafe,40.7438372,-74.0316294,Hoboken,hoboken,NJ,unknown,0.0,,,1
osm:node/10152391440,osm,Pizza Hut Express,41.5043442,-74.220524,Montgomery,montgomery,NY,unknown,0.0,,https://locations.pizzahut.com/ny/montgomery/125-neelytown-road,1
osm:node/10152452467,osm,Andalus Cafe and Pizza,42.3410693,-71.1468649,,,,unknown,0.0,,,1
osm:node/10153295625,osm,Pizza Pipeline,47.6708068,-117.4117597,,,,unknown,0.0,,,1
osm:node/10155118958,osm,Omega Pizza,42.0626016,-71.3309697,,,,unknown,0.0,,,1
osm:node/10155740446,osm,Krazy Chicken & Pizza,40.681804,-73.9286925,,,,unknown,0.0,,,1
osm:node/10155740457,osm,Crown Chicken & Pizza,40.6856143,-73.9149283,,,,unknown,0.0,,,1
osm:node/10157857832,osm,Fellini Pizzeria,41.7653507,-71.3904098,,,,unknown,0.0,,,1
osm:node/10158869637,osm,Mountain Mike's,37.5445195,-121.9813827,,,,unknown,0.0,,,1
osm:node/10159696883,osm,Round Table Pizza,33.740387,-117.8207535,,,,unknown,0.0,,,1
osm:node/10160040956,osm,Romina's Fast Pizza,37.2956473,-122.031377,,,,unknown,0.0,,,1
osm:node/10160105086,osm,Papa Murphy's,38.678383,-121.7829479,,,,unknown,0.0,,,1
osm:node/10160314828,osm,Wize Guys,40.8910107,-74.1459059,,,,unknown,0.0,,http://clifton.wizeguyspizza.com/,1
osm:node/10160413199,osm,Papa Murphy's,39.0333727,-122.9163021,,,,unknown,0.0,,,1
osm:node/10160671521,osm,Ramona Lisa's Pizza and Subs,33.006151,-116.8184987,Ramona,ramona,CA,unknown,0.0,,https://www.ramonalisapizzasubs.com/,1
osm:node/10163912922,osm,Papa John's,39.1034091,-84.5163336,Cincinnati,cincinnati,OH,unknown,0.0,,https://locations.papajohns.com/united-states/oh/45202/cincinnati/132-w-7th-st,1
osm:node/10164097240,osm,Domino's,40.8655393,-73.9854116,Leonia,leonia,NJ,unknown,0.0,,https://pizza.dominos.com/new-jersey/leonia/440-broad-ave,1
osm:node/10164098334,osm,Jonna's Bar & Grill,42.5111144,-83.6143072,,,,unknown,0.0,,https://www.jonnasbarandgrill.com/,1
osm:node/10164930457,osm,Shane's Pizza and Pints,33.0970834,-117.2002284,San Marcos,san marcos,CA,unknown,0.0,,,1
osm:node/10169914591,osm,Godfather's Pizza,40.9318657,-90.9483176,Oquawka,oquawka,IL,unknown,0.0,,https://godfathers.com/home,1
osm:node/10170216900,osm,Pizza Hut,32.6608062,-116.9707391,Chula Vista,chula vista,CA,unknown,0.0,,https://locations.pizzahut.com/ca/chula-vista/2326-proctor-valley-rd,1
osm:node/10170216906,osm,Pizzo's Pizzeria and Wine Bar,32.6614881,-116.9706158,Chula Vista,chula vista,CA,unknown,0.0,,,1
osm:node/10170751906,osm,Pizza Patron,33.5372598,-112.0991115,,,,unknown,0.0,,,1
osm:node/10171896748,osm,Mountain Mikes,37.6639009,-120.9774714,,,,unknown,0.0,,,2
osm:node/10172171327,osm,Wurlitzer Pizza Co.,43.0610301,-78.8653249,North Tonawanda,north tonawanda,NY,unknown,0.0,,,1
osm:node/10172624464,osm,Rosati's,41.7695415,-87.8865536,,,,unknown,0.0,,,1
osm:node/10173866625,osm,Mioposto,47.5841826,-122.3866147,Seattle,seattle,WA,unknown,0.0,,https://www.miopostopizza.com/admiral,1
osm:node/10177499336,osm,Mickey's Pizza,42.2343935,-83.17975,Lincoln Park,lincoln park,MI,unknown,0.0,,,1
osm:node/10177499368,osm,Saroki's,42.2488472,-83.4246743,Romulus,romulus,MI,unknown,0.0,,,1
osm:node/10178282204,osm,T-Dub's,43.3285401,-83.7394286,Frankenmuth,frankenmuth,MI,unknown,0.0,,https://www.t-dubs.com/,1
osm:node/1017874322,osm,Papa Murphy's,38.7901565,-121.2789335,,,CA,unknown,0.0,,,1
osm:node/10179185203,osm,Willington Pizza Too,41.879731,-72.3033493,,,,unknown,0.0,,,1
osm:node/10180090933,osm,Fresh Brothers,34.0531961,-118.4667851,,,,unknown,0.0,,,1
osm:node/10180090938,osm,Pizzana,34.0533362,-118.4660411,,,,unknown,0.0,,,1
osm:node/10181091556,osm,iPie Pizzeria,43.6540839,-72.7902459,Killington,killington,VT,unknown,0.0,,http://www.ipiepizzeria.com,1
osm:node/10181778382,osm,Emiliano's Pizza,41.7056792,-73.9348328,Poughkeepsie,poughkeepsie,NY,unknown,0.0,,https://www.emilianospizza.com/,1
osm:node/10183653501,osm,Ledo Pizza,39.1308169,-76.742068,Hanover,hanover,,unknown,0.0,,,1
osm:node/10183940447,osm,Oh Pizza and Wings,40.1341962,-83.0148672,Columbus,columbus,OH,unknown,0.0,,https://ohpizzabrew.com/,1
osm:node/10184795240,osm,Domino's,39.1940528,-76.8837163,Columbia,columbia,MD,unknown,0.0,,https://pizza.dominos.com/maryland/columbia/6470-freetown-rd,1
osm:node/10186046229,osm,Gionino's Pizzeria,40.9667608,-81.4644331,Uniontown,uniontown,OH,unknown,0.0,,http://www.gioninos.com/,1
osm:node/10186231400,osm,Famous PIzza,41.6599219,-71.1904641,,,,unknown,0.0,,,1
osm:node/10187079775,osm,Pizza Hut,40.6884935,-73.7956677,Jamaica,jamaica,NY,unknown,0.0,,https://locations.pizzahut.com/ny/jamaica/111-02-sutphin-blvd,1
osm:node/10189295050,osm,Ginos,40.7002803,-73.3225695,,,,unknown,0.0,,,1
osm:node/10195932415,osm,Pronto Pizza,40.5713559,-74.1111461,,,,unknown,0.0,,,1
osm:node/10195939267,osm,Avanti's Pizzeria,40.5732492,-74.1152338,,,,unknown,0.0,,,1
osm:node/10195939273,osm,Pizzeria Giove,40.5721382,-74.1131485,,,,unknown,0.0,,,1
osm:node/10196268652,osm,Elemental Pizza,47.8306761,-122.2730113,,,,unknown,0.0,,,1
osm:node/10197693712,osm,Fatman's Pizza,43.0284114,-78.8225171,Tonawanda,tonawanda,NY,unknown,0.0,,,1
osm:node/10197980963,osm,Pacific Pizza,40.7116545,-74.0626805,Jersey City,jersey,NJ,unknown,0.0,,,1
osm:node/10198020635,osm,Mama's Pizza,40.7588156,-73.9889612,New York,new york,NY,unknown,0.0,,,1
osm:node/10198286509,osm,Molinara's N.Y. Pizza & Caffe,42.9810949,-78.83083,Tonawanda,tonawanda,NY,unknown,0.0,,,1
osm:node/10202419640,osm,Papa John's,40.5737767,-74.6377914,Raritan,raritan,NJ,unknown,0.0,,https://locations.papajohns.com/united-states/nj/08869/raritan/101-2nd-avenue,1
osm:node/10202888659,osm,Wolfgang Puck Pizza,42.3616221,-71.0196087,,,,unknown,0.0,,,1
osm:node/10203025664,osm,Pieology Pizzeria,38.4082418,-121.4135818,Elk Grove,elk grove,CA,unknown,0.0,,,1
osm:node/10203163309,osm,Sbarro,32.2893219,-110.9741858,Tucson,tucson,AZ,unknown,0.0,,https://sbarro.com/locations/arizona/tucson/tucson-mall,1
osm:node/10203875232,osm,Pomodoro Natural Pizzeria,39.0661615,-76.719775,,,,unknown,0.0,,http://www.pomodoronaturalpizzeria.com/?utm_source=gmb&utm_medium=website,1
osm:node/10203939820,osm,Little Caesars,39.0797548,-76.6883715,,,,unknown,0.0,,,1
osm:node/10204083044,osm,Pizza Hut Delivery,41.9319073,-87.8854757,Franklin Park,franklin park,IL,unknown,0.0,,https://locations.pizzahut.com/il/franklin-park/2926-mannheim-rd,1
osm:node/10204083046,osm,Papa John's,41.9130224,-87.8829008,Melrose Park,melrose park,IL,unknown,0.0,,https://locations.papajohns.com/united-states/il/60160/melrose-park/2085-north-mannheim-road,1
osm:node/10204880946,osm,Piara Pizza,34.0469004,-118.4482732,,,,unknown,0.0,,,1
osm:node/10208317028,osm,Round Table Pizza,33.5526458,-117.1381925,,,,unknown,0.0,,,1
osm:node/10208425280,osm,Reggiano's Brick Oven Pizza,40.510965,-74.2419164,,,,wood_or_coal,0.45,solid:'brick oven',https://reggianosbrickoven.com/,1
osm:node/10210616240,osm,Domino's,38.889965,-104.8180487,Colorado Springs,colorado springs,CO,unknown,0.0,,https://pizza.dominos.com/colorado/colorado-springs/204-mountview-lane-7,1
osm:node/10210817592,osm,Shield's Pizzeria & Bar,42.3574638,-83.0649802,,,,unknown,0.0,,,1
osm:node/10210905805,osm,Devens Pizza & Deli,42.5542414,-71.6052671,Ayer,ayer,MA,unknown,0.0,,devenspizza.com,1
osm:node/10211059741,osm,Pizza Hut Express,39.908048,-79.7582493,Uniontown,uniontown,PA,unknown,0.0,,https://locations.pizzahut.com/pa/uniontown/120-matthew-dr,1
osm:node/10211192230,osm,Pizza Hut Delivery,33.8897441,-117.848125,Placentia,placentia,CA,unknown,0.0,,https://locations.pizzahut.com/ca/placentia/901-e-yorba-linda-blvd,1
osm:node/10211258853,osm,Park Pizza,41.0330621,-74.0366633,,,,unknown,0.0,,,1
osm:node/10212206517,osm,Gionino's Pizzeria,41.1016572,-81.4696146,Akron,akron,OH,unknown,0.0,,https://www.gioninos.com/locations/oh-akron-1250-e-tallmadge-ave-44310,1
osm:node/10212548743,osm,Pizza Delight,42.9805945,-78.8104874,Buffalo,buffalo,NY,unknown,0.0,,,1
osm:node/10213208164,osm,Rovente Pizzeria,45.4917055,-122.827849,Beaverton,beaverton,OR,unknown,0.0,,https://roventepizzeria.com/,1
osm:node/10213225685,osm,La Rosa Pizza,40.5407149,-74.3654162,Metuchen,metuchen,NJ,unknown,0.0,,https://larosametuchen.com/,1
osm:node/10213324988,osm,Domino's,39.5052707,-84.7489353,Oxford,oxford,OH,unknown,0.0,,https://pizza.dominos.com/ohio/oxford/431-south-locust-st,1
osm:node/10215234560,osm,Ledo Pizza,39.1717172,-77.2052337,Montgomery Village,montgomery,MD,unknown,0.0,,https://ledopizza.com/store/md-montgomery-village/,1
osm:node/10215290962,osm,Little Caesars,41.6971031,-73.9055746,,,,unknown,0.0,,https://littlecaesars.com/en-us/store/9564/,1
osm:node/10216124134,osm,Sal's Pizzeria,43.4246539,-88.1830484,,,,unknown,0.0,,,1
osm:node/10220235579,osm,Papa Murphy's,44.1682988,-93.9570228,Mankato,mankato,MN,unknown,0.0,,,1
osm:node/10220267110,osm,Leonards’s Pizza & Restaurant,40.677664,-73.4699677,Massapequa,massapequa,NY,unknown,0.0,,http://leonardospizzany.com,1
osm:node/10220471891,osm,MOD Pizza,42.1610753,-88.0493114,Kildeer,kildeer,IL,unknown,0.0,,https://locations.modpizza.com/usa/il/kildeer/20505-n-rand-rd,1
osm:node/10220643162,osm,Maria's Pizza Chicken Ribs,40.8565211,-73.4119875,Huntington Station,huntington station,NY,unknown,0.0,,,1
osm:node/10223708641,osm,Papa Murphy's Pizza,48.9367971,-122.4837662,,,,unknown,0.0,,,1
osm:node/10223878137,osm,Saroki's Crispy Chicken & Pizza,42.3236149,-83.4484105,Canton,canton,MI,unknown,0.0,,,1
osm:node/10224318796,osm,Pizza Hut,34.0307759,-118.334828,Los Angeles,los angeles,CA,unknown,0.0,,https://locations.pizzahut.com/ca/los-angeles/2800-crenshaw-blvd,1
osm:node/10224495804,osm,Zzeeks Pizza,33.3293872,-111.9796385,Phoenix,phoenix,AZ,unknown,0.0,,https://zzeeks.com/,1
osm:node/10225073870,osm,Bella Roma Pasta & Pizza,33.542852,-117.690677,Laguna Niguel,laguna niguel,CA,unknown,0.0,,https://bella-roma.net,1
osm:node/10225865274,osm,Romeo's Pizza,41.4952652,-82.0202235,,,,unknown,0.0,,,1
osm:node/10225916029,osm,Old School,41.4939717,-82.0180351,,,,unknown,0.0,,,1
osm:node/10225943377,osm,Marco's Pizza,41.4936039,-82.0168853,,,,unknown,0.0,,,1
osm:node/10226702517,osm,Blaze Pizza,33.9052602,-117.4724814,,,,unknown,0.0,,,1
osm:node/10226702526,osm,Mamma Mia,33.9053448,-117.4746889,,,,unknown,0.0,,,1
osm:node/10226912430,osm,Fast 5 Pizza,33.919603,-117.4887028,,,,unknown,0.0,,,1
osm:node/10226912431,osm,Scratch Handmade Pizza,33.9203568,-117.4901057,,,,unknown,0.0,,,1
osm:node/10226921254,osm,First Class Pizza,33.9051432,-117.4938687,,,,unknown,0.0,,,1
osm:node/10227704619,osm,Domino's,40.0136874,-74.3226494,LakeHurst,lakehurst,NJ,unknown,0.0,,https://pizza.dominos.com/new-jersey/lakehurst/506-route-70,1
osm:node/10227789633,osm,Vicario's Pizza,40.3448846,-83.7607831,Bellefontaine,bellefontaine,OH,unknown,0.0,,https://vicariospizzaandpasta.com,1
osm:node/10229254456,osm,Domino's,33.9441584,-117.455296,Riverside,riverside,CA,unknown,0.0,,https://pizza.dominos.com/california/riverside/6170--van-buren-blvd,1
osm:node/10229254458,osm,Fiesta Pizza,33.9432194,-117.4551029,,,,unknown,0.0,,,1
osm:node/10231207240,osm,Scandia Cafe,38.2247306,-122.1240649,,,,unknown,0.0,,https://scandiafamilycenter.com/attractions/scandia-cafe/,1
osm:node/10231269954,osm,Your Pizza Restaurant,40.9150919,-81.1054931,,,,unknown,0.0,,,1
osm:node/10231676810,osm,D'Agostino's Pizzeria,42.9179138,-78.7380818,Depew,depew,NY,unknown,0.0,,,1
osm:node/10232214277,osm,Alex's Corner Pizza Shop,40.4586245,-79.9470484,Bloomfield,bloomfield,PA,unknown,0.0,,https://alexscornerpizzashop.com/,1
osm:node/10233674498,osm,Wrentham House of Pizza,42.0654622,-71.3288679,,,,unknown,0.0,,,1
osm:node/10233674770,osm,Town Pizza,42.0658726,-71.3292562,,,,unknown,0.0,,,1
osm:node/10236770762,osm,Round Table Pizza,35.3862415,-119.110416,,,,unknown,0.0,,,1
osm:node/10238869915,osm,Kraus' Pizza of Navarre,40.7208346,-81.5273241,,,,unknown,0.0,,,1
osm:node/10239392164,osm,Delta Pizza,39.7272668,-76.3268123,Delta,delta,PA,unknown,0.0,,https://deltapizza.com/,1
osm:node/10239617708,osm,Goombas Pizza Grinder on Colfax,39.7400255,-104.952175,Denver,denver,CO,unknown,0.0,,,1
osm:node/10239638110,osm,Fat Sully's Pizza,39.7403138,-104.9490513,Denver,denver,CO,unknown,0.0,,,1
osm:node/10239994786,osm,Old City Pizzeria & Sports Bar,42.0548538,-87.8431573,Niles,niles,IL,unknown,0.0,,https://oldcitypizzeria.com/,1
osm:node/10240306876,osm,Domino's,40.6974167,-73.3190658,Babylon,babylon,NY,unknown,0.0,,https://pizza.dominos.com/new-york/babylon/9-cooper-st,1
osm:node/10240357859,osm,Pizza Hut,42.0834964,-76.8033565,Elmira,elmira,NY,unknown,0.0,,https://locations.pizzahut.com/ny/elmira/299-s-main-st,1
osm:node/10240926366,osm,Baithak of Punjab,42.9671147,-87.9093055,Milwaukee,milwaukee,WI,unknown,0.0,,,1
osm:node/10241879027,osm,Pizza Hut Express,34.0648385,-117.5601718,Ontario,ontario,CA,unknown,0.0,,https://locations.pizzahut.com/ca/ontario/4265-guasti-road,1
osm:node/10243405795,osm,Pieology Pizzeria,38.6450619,-121.1218265,,,,unknown,0.0,,,1
osm:node/10245469618,osm,Xochil Pizzeria,40.6469701,-74.0081578,,,,unknown,0.0,,,1
osm:node/10245927796,osm,Antonio's Restaurant & Pizzeria,40.7921332,-74.0037592,Guttenberg,guttenberg,NJ,unknown,0.0,,,1
osm:node/10245942557,osm,Nick & Joe's,39.6523332,-75.7916886,Elkton,elkton,MD,unknown,0.0,,http://nickandjoes.net/,1
osm:node/10245942558,osm,Dolce Pizzeria,39.6536011,-75.7917067,Elkton,elkton,MD,unknown,0.0,,https://dolcepizzeria.com/,1
osm:node/10247282427,osm,Family Kitchen & Pizzeria,43.1463533,-72.8416774,,,,unknown,0.0,,https://www.familykitchenpizzeria.com,1
osm:node/10247296152,osm,&pizza,39.1809775,-77.2668852,,,,unknown,0.0,,,1
osm:node/10247574002,osm,SaMo Pizza,34.0182212,-118.47259,,,,unknown,0.0,,,1
osm:node/10247963897,osm,Bellizzi’s Pizza Joint,44.0797037,-123.0684908,Eugene,eugene,OR,unknown,0.0,,https://bellizzipizza.com/,1
osm:node/10249649798,osm,Brooklyn Slice,40.7158179,-73.6012847,,,NY,unknown,0.0,,,1
osm:node/10249775091,osm,Chuck E. Cheese,39.0973983,-76.8548129,Laurel,laurel,MD,unknown,0.0,,https://locations.chuckecheese.com/us/md/laurel/936-fairlawn-ave.,1
osm:node/10249775095,osm,D'Angelo's Pizza & Subs,39.097154,-76.8557677,Laurel,laurel,MD,unknown,0.0,,https://www.dangelospizzasubs.com/,1
osm:node/10249780223,osm,Bocce Club Pizza,42.9345587,-78.7314295,Buffalo,buffalo,NY,unknown,0.0,,,1
osm:node/10250061441,osm,Rosati's,42.4082306,-88.6128715,,,,unknown,0.0,,,1
osm:node/10250061443,osm,Little Caesars,42.4026782,-88.6149971,,,,unknown,0.0,,,1
osm:node/10251504429,osm,Papa Ray's Pizza and Wings,42.0334752,-87.9401227,,,,unknown,0.0,,,1
osm:node/10252453728,osm,Round Table Pizza,47.7439009,-122.3466885,,,,unknown,0.0,,,1
osm:node/10253716667,osm,POMO Pizzeria,33.5106378,-112.0263913,Phoenix,phoenix,AZ,unknown,0.0,,https://pomopizzeria.com/biltmore,1
osm:node/10258558540,osm,La Volpe Restaurant & Anton Pizzeria,40.8005216,-72.8018678,Center Moriches,center moriches,NY,unknown,0.0,,https://www.lavolperestaurant.net,1
osm:node/10262846977,osm,Jerry's Pizza & Subs,42.6966735,-87.8022758,,,,unknown,0.0,,,1
osm:node/10266321318,osm,Papa John's,34.0475142,-118.463536,Los Angeles,los angeles,CA,unknown,0.0,,https://locations.papajohns.com/united-states/ca/90025/los-angeles/11841-wilshire-boulevard,1
osm:node/10266623245,osm,Costco Food Court,33.2957267,-111.7453135,Gilbert,gilbert,AZ,unknown,0.0,,,1
osm:node/10266624038,osm,Dominick's Pizza & Restaurant,40.9872901,-74.9822878,,,,unknown,0.0,,,1
osm:node/10268590247,osm,Broadway Pizza,43.0891792,-78.9807508,Niagara Falls,niagara falls,NY,unknown,0.0,,,1
osm:node/10268930511,osm,Bianco's Italian Pizzeria and Grill,42.1467115,-71.2521253,,,,unknown,0.0,,https://www.biancoswalpole.com/,1
osm:node/10268976867,osm,Little Caesars,40.4675007,-74.4538523,North Brunswick,north brunswick,NJ,unknown,0.0,,https://littlecaesars.com/en-us/store/2332,1
osm:node/10270176125,osm,Genoa Pizza,42.7893369,-88.397159,East Troy,east troy,WI,unknown,0.0,,https://m.facebook.com/genoapizza/,1
osm:node/10270803997,osm,Domino's,48.0011778,-122.106995,Lake Stevens,lake stevens,WA,unknown,0.0,,https://www.dominos.com/en/pages/order/menu,2
osm:node/10270861222,osm,Ainslie Bowery,40.7211098,-73.9934939,New York,new york,NY,unknown,0.0,,https://ainsliebowery.com,1
osm:node/10272230376,osm,Barro's Pizza,33.3779101,-112.1729756,,,,unknown,0.0,,,1
osm:node/1027315923,osm,California Pizza Kitchen,40.0894175,-75.3848242,,,,unknown,0.0,,,1
osm:node/10273292850,osm,Virgil's Plate,42.1215925,-80.1060402,Erie,erie,PA,unknown,0.0,,,1
osm:node/1027643817,osm,Vinnie's Mulberry Street,40.73052,-73.1929242,East Islip,east islip,NY,unknown,0.0,,https://vinniesmulberrystreet.com/,2
osm:node/10276449054,osm,Pizza Port,40.6699196,-73.8208681,South Ozone Park,south ozone park,NY,unknown,0.0,,,1
osm:node/10276554621,osm,Domino's,34.0400123,-118.4655955,West Los Angeles,west los angeles,CA,unknown,0.0,,https://pizza.dominos.com/california/west-los-angeles/12237-santa-monica-blvd,1
osm:node/10276554631,osm,Prime Pizza,34.0400864,-118.4650119,,,,unknown,0.0,,,1
osm:node/10276554644,osm,Little Caesars,34.0416578,-118.4594869,,,,unknown,0.0,,https://littlecaesars.com/en-us/store/11457/,1
osm:node/10276568315,osm,Franks Pizza and Italian Restaurant,40.9836406,-74.9959313,,,,unknown,0.0,,,1
osm:node/10276784418,osm,LaRosa Pizzeria,43.0979679,-78.9796064,,,,unknown,0.0,,,1
osm:node/10277009963,osm,Deja Vu Pizza & Pasta,37.7646276,-122.4247726,San Francisco,san francisco,CA,unknown,0.0,,https://dejavupizzaandpasta.com/,1
osm:node/10277656241,osm,Pitch Pizzeria,33.6574076,-111.908631,Scottsdale,scottsdale,AZ,unknown,0.0,,https://pitchpizzeria.com/,1
osm:node/10277680504,osm,Pitch Pizzeria,33.4806695,-111.9453445,Scottsdale,scottsdale,AZ,unknown,0.0,,https://pitchpizzeria.com/,1
osm:node/10278937003,osm,Sahara Pizza,48.0160025,-122.0624012,Lake Stevens,lake stevens,WA,unknown,0.0,,https://saharapizza.com/,1
osm:node/10279174218,osm,Bruno's Pizzeria,48.0006531,-122.1092391,Lake Stevens,lake stevens,WA,unknown,0.0,,,1
osm:node/10279230652,osm,Pizza Hut Delivery,33.7892402,-117.9136283,Anaheim,anaheim,CA,unknown,0.0,,https://locations.pizzahut.com/ca/anaheim/521-w-chapman-ave,1
osm:node/10281549346,osm,Native Grill & Wings,33.3790139,-112.1668557,Phoenix,phoenix,AZ,unknown,0.0,,,1
osm:node/10281549352,osm,Little Caesars,33.3789651,-112.1658871,Phoenix,phoenix,AZ,unknown,0.0,,https://littlecaesars.com/en-us/store/1361/,1
osm:node/10281549398,osm,Papa John's,33.3758158,-112.1671459,Laveen;Phoenix,laveen phoenix,AZ,unknown,0.0,,https://locations.papajohns.com/united-states/az/85339/laveen/5045-w-baseline-rd,1
osm:node/10281859716,osm,Chi Pizza,41.1077479,-74.0676346,Monsey,monsey,NY,unknown,0.0,,,1
osm:node/10281859718,osm,Shelley's,41.1067726,-74.0651494,,,,unknown,0.0,,,1
osm:node/10282660316,osm,Costco Food Court,47.9751827,-122.106154,Lake Stevens,lake stevens,WA,unknown,0.0,,,1
osm:node/10282743699,osm,Pizza Hut,40.6647742,-73.7350971,Rosedale,rosedale,NY,unknown,0.0,,,1
osm:node/10283923941,osm,Pizza Hut Delivery,32.7486206,-117.139246,San Diego,san diego,CA,unknown,0.0,,https://locations.pizzahut.com/ca/san-diego/2340-university-avenue,1
osm:node/10284890328,osm,Frank Pepe Pizzeria Napoletana,41.4923154,-72.0911016,,,,wood,0.45,woodlean:'napoletana',https://pepespizzeria.com/store/frank-pepes-mohegan-sun,1
osm:node/10285291004,osm,New York Style Pizza,33.6030768,-117.900415,,,,unknown,0.0,,,1
osm:node/10285346986,osm,Round Two Pizza and Subs,42.295854,-71.115838,,,,unknown,0.0,,https://roundtwopizza.com,1
osm:node/10286498610,osm,Coniglio's Old Fashioned,40.7958754,-74.4808477,,,,unknown,0.0,,,1
osm:node/10286594362,osm,Pizza Hut,33.377236,-112.100548,Phoenix,phoenix,AZ,unknown,0.0,,https://locations.pizzahut.com/az/phoenix/1909-w-baseline-rd,1
osm:node/10286653241,osm,Hungry Howie's,33.3796377,-112.0727798,,,,unknown,0.0,,,1
osm:node/10286707796,osm,Regina Pizzeria,41.4718455,-71.9598745,,,,unknown,0.0,,,1
osm:node/10286707798,osm,California Pizza Kitchen,41.473534,-71.9613722,,,,unknown,0.0,,,1
osm:node/10286858926,osm,Rosati's,33.3796415,-112.0308584,,,,unknown,0.0,,,1
osm:node/10286870044,osm,Barro's Pizza,33.3771943,-112.027886,,,,unknown,0.0,,,1
osm:node/10288955932,osm,Bloom,37.8093575,-122.2731102,,,,unknown,0.0,,https://www.bloomoakland.com/,1
osm:node/10290362826,osm,Wood Paddle Pizza & Tap,39.6373576,-104.788644,Aurora,aurora,CO,unknown,0.0,,https://woodpaddlepizza.com/,1
osm:node/10291852277,osm,I Love Pizza of Troy,42.7289418,-73.689669,,,,unknown,0.0,,,1
osm:node/10291852282,osm,Gino's Pizzeria,42.7290156,-73.689656,,,,unknown,0.0,,,1
osm:node/10291914937,osm,Grano Pizzeria & Italian Restaurant,40.6500189,-74.3969488,,,,unknown,0.0,,,1
osm:node/10291914952,osm,Massa,40.6506015,-74.3977742,,,,unknown,0.0,,https://www.massarsp.com/,1
osm:node/10292171109,osm,Pizza 1 & Subs 2,41.6538067,-70.3928567,,,,unknown,0.0,,,1
osm:node/10292456710,osm,Cottage Inn,43.8299983,-83.2801519,,,,unknown,0.0,,,1
osm:node/10293831851,osm,Mountain Mike's,37.5270048,-122.2846013,,,,unknown,0.0,,,1
osm:node/10293863909,osm,Bacco Pizzeria & Wine Bar,40.2600544,-76.8827,Harrisburg,harrisburg,PA,unknown,0.0,,https://www.baccopizzeriawinebar.com/,1
osm:node/10294231610,osm,Domino's,33.5339979,-117.7765087,,,,unknown,0.0,,,1
osm:node/10294231624,osm,Gina’s Pizza,33.5341112,-117.7767652,,,,unknown,0.0,,,1
osm:node/10294978679,osm,Pizza Hut,48.7420381,-122.463715,Bellingham,bellingham,WA,unknown,0.0,,https://locations.pizzahut.com/wa/bellingham/1251-lincoln-st,1
osm:node/10295918421,osm,Big Daddy's Pizzeria & Deli,41.5957992,-73.168838,,,,unknown,0.0,,https://bigdaddyswoodbury.com/,1
osm:node/10296372743,osm,Colore,39.6675719,-104.987431,Englewood,englewood,CO,unknown,0.0,,https://coloreitalian.com/,1
osm:node/10296457179,osm,Mountain Mike's,37.7228946,-121.9413919,,,,unknown,0.0,,,1
osm:node/10297691332,osm,Pizza Factory,38.0399775,-120.2252297,Twain Harte,twain harte,CA,unknown,0.0,,https://www.pizzafactory.com/twainharte/,1
osm:node/10297809017,osm,Mountain Mike's,37.9748357,-120.3651962,,,,unknown,0.0,,,1
osm:node/10297844066,osm,Round Table Pizza,48.773157,-122.460563,Bellingham,bellingham,WA,unknown,0.0,,,1
osm:node/10299277960,osm,Upper Crust Pizzeria,34.0461288,-118.4647099,,,,unknown,0.0,,,1
osm:node/10299345796,osm,Domino's,41.2871054,-82.2171986,Oberlin,oberlin,OH,unknown,0.0,,https://pizza.dominos.com/ohio/oberlin/155-south-main-street,1
osm:node/10299385821,osm,Papa's Pizza - WARREN,42.4476531,-83.081682,Warren,warren,MI,unknown,0.0,,https://www.eatpapas.com/,1
osm:node/10299638950,osm,Artichoke Basille's Pizza,33.3785374,-111.9234374,,,,unknown,0.0,,,1
osm:node/10301584528,osm,Jimmy & Joe's Pizzeria,33.3787696,-111.8772768,,,,unknown,0.0,,,1
osm:node/10301624357,osm,Master Pizza,33.3783913,-111.8718382,,,,unknown,0.0,,,1
osm:node/1030169100,osm,Benny Blanco's Slice of the Bronx,39.7367895,-104.9793986,Denver,denver,CO,unknown,0.0,,https://bennyblancos303.com/,1
osm:node/10302060597,osm,Domino's,37.9178613,-122.066053,Walnut Creek,walnut creek,CA,unknown,0.0,,https://pizza.dominos.com/california/walnut-creek/2521-n-main-st,1
osm:node/10302572675,osm,Domino's,41.1554031,-82.2185883,Wellington,wellington,OH,unknown,0.0,,https://pizza.dominos.com/ohio/wellington/508-south-main-street,1
osm:node/10302577881,osm,Guy's Pizza,41.1529997,-81.3583524,,,,unknown,0.0,,,1
osm:node/10303560710,osm,Acre Pizza Sebastopol,38.4037725,-122.8204358,,,,unknown,0.0,,,1
osm:node/10309849470,osm,California Grill & Pizza,39.1828842,-76.7520123,,,,unknown,0.0,,https://www.californiagrillmenu.com/?utm_source=gbp,1
osm:node/10309850407,osm,Ambrosino's Pizzeria,40.5536262,-74.193048,,,,unknown,0.0,,,1
osm:node/10309983784,osm,Pizza Hut,33.9344615,-118.3268175,Inglewood,inglewood,CA,unknown,0.0,,https://locations.pizzahut.com/ca/inglewood/11115-crenshaw-blvd,1
osm:node/1031083743,osm,Big Al's Pizza,43.8123751,-91.2526955,,,,unknown,0.0,,,1
osm:node/1031086168,osm,Polito's Pizza,43.8124274,-91.2530797,La Crosse,la crosse,WI,unknown,0.0,,,1
osm:node/10310895290,osm,Little Zoe's Pizza,42.931249,-72.2848893,Keene,keene,NH,unknown,0.0,,https://littlezoes.com/,1
osm:node/10311893646,osm,Sally's Apizza,41.1633497,-73.2332563,Fairfield,fairfield,CT,unknown,0.0,,https://sallysapizza.com/locations/fairfield,1
osm:node/10312305606,osm,Valentino's Pizzaria,34.089307,-117.7385242,,,,unknown,0.0,,,1
osm:node/10313352691,osm,Vespa's Pizza,44.4952482,-73.1203761,Essex Junction,essex junction,VT,unknown,0.0,,https://www.vespaspizza.com/,1
osm:node/10313841655,osm,Brother's Pizza,39.5823886,-74.3679428,,,,unknown,0.0,,,1
osm:node/10313877380,osm,Little Caesars,42.3394594,-83.3833545,Westland,westland,MI,unknown,0.0,,https://littlecaesars.com/en-us/store/996/,1
osm:node/10313877456,osm,Little Caesars,42.3102685,-83.3508922,Westland,westland,MI,unknown,0.0,,https://littlecaesars.com/en-us/store/1/,1
osm:node/10313967181,osm,Papa Murphy's,48.7446379,-122.4576891,,,,unknown,0.0,,,1
osm:node/10313967184,osm,Papa John's,48.7445614,-122.4580814,Bellingham,bellingham,WA,unknown,0.0,,https://locations.papajohns.com/united-states/wa/98229/bellingham/1306-lakeway-dr,1
osm:node/10314028796,osm,Marco's Pizza,41.0610323,-80.6165708,,,,unknown,0.0,,,1
osm:node/10315359156,osm,Three Needs Pizza Cube,44.4803457,-73.2116494,Burlington,burlington,VT,unknown,0.0,,https://www.threeneeds.net/pizza-cube,1
osm:node/10315641902,osm,SImply Subs Pizza & Delivery,44.1976409,-72.5020006,Barre,barre,VT,unknown,0.0,,,1
osm:node/10315882109,osm,Uptop Pizzeria,40.6949209,-74.173838,,,,unknown,0.0,,,1
osm:node/1033850110,osm,Broadway Bar & Pizza,44.0665635,-92.5028054,,,,unknown,0.0,,http://www.broadwaypizzarochester.com/,1
osm:node/1036344253,osm,Shakey's,34.0976962,-118.302913,Los Angeles,los angeles,CA,unknown,0.0,,,1
osm:node/1038635300,osm,Blue Jeans Pizza,42.2640728,-71.819824,,,,unknown,0.0,,,1
osm:node/1040490754,osm,Straw Hat Pizza,37.6180519,-122.0680429,,,,unknown,0.0,,,1
osm:node/1041371883,osm,Buddy's on the Beach,42.776602,-85.1342839,Lake Odessa,lake odessa,MI,unknown,0.0,,https://www.facebook.com/buddysonthebeach/,1
osm:node/1043272497,osm,Domino's,40.0841375,-75.3874858,King of Prussia,king of prussia,,unknown,0.0,,https://pizza.dominos.com/pennsylvania/king-of-prussia/143-south-gulph-road,1
osm:node/1045888143,osm,Venice Pizza and Pasta,40.0430875,-75.5274966,Malvern,malvern,PA,unknown,0.0,,https://www.venicepizzapasta.com,1
osm:node/1046125197,osm,Little Caesars,42.1255864,-85.6386605,,,,unknown,0.0,,https://littlecaesars.com/en-us/store/1563/,1
osm:node/1046710369,osm,Pizza Hut,39.6108628,-105.1125972,Littleton,littleton,CO,unknown,0.0,,https://locations.pizzahut.com/co/littleton/10171b-w-bowles-ave,1
osm:node/1047235954,osm,Ernie's Bar and Pizza,39.7768475,-105.02445,Denver,denver,CO,unknown,0.0,,https://www.erniesdenver.com/,1
osm:node/1048736771,osm,Amato Pizza,37.2297365,-121.884812,San Jose,san jose,,unknown,0.0,,,1
osm:node/1049109134,osm,Joe's Pizza,39.6457113,-75.3412564,Woodstown,woodstown,NJ,unknown,0.0,,https://www.joespizzashop.com/,1
osm:node/1051741099,osm,Papa Luigi's Pizza,39.6529117,-75.3279308,,,,unknown,0.0,,,1
osm:node/1051743011,osm,Gus's Pizzeria,39.6507144,-75.3282312,Woodstown,woodstown,NJ,unknown,0.0,,,1
osm:node/10536178209,osm,Bar Corallini,43.0922707,-89.354489,,,,unknown,0.0,,https://www.barcorallini.com/,1
osm:node/1053626247,osm,Chuck E. Cheese's,37.246523,-121.8885794,San Jose,san jose,,unknown,0.0,,,1
osm:node/10536336736,osm,BloNo Pizza Company,40.4962512,-89.0228586,Normal,normal,IL,unknown,0.0,,https://blonopizzaco.com/,1
osm:node/10537632228,osm,Cottage Inn Pizza,42.3040913,-83.7068955,Ann Arbor,ann arbor,MI,unknown,0.0,,https://locations.cottageinn.com/cottage-inn-pizza-24a881696402,1
osm:node/10538414950,osm,Papa John's,45.4260842,-122.779097,Tigard,tigard,OR,unknown,0.0,,https://locations.papajohns.com/united-states/or/97223/tigard/12950-sw-pacific-hwy,1
osm:node/10542198993,osm,Domino's,41.5225607,-81.3387622,Chesterland,chesterland,OH,unknown,0.0,,https://pizza.dominos.com/ohio/chesterland/8486-mayfield-rd/,1
osm:node/10543794291,osm,Classic Pizza,34.0234224,-118.461652,,,,unknown,0.0,,,1
osm:node/10544067813,osm,Papa Murphy's,47.7443146,-117.4056421,,,,unknown,0.0,,,1
osm:node/10552713096,osm,Otto,42.349263,-71.2066358,Newton,newton,MA,unknown,0.0,,,1
osm:node/10552972671,osm,Paradise Pizza,43.3503393,-73.6864744,,,,unknown,0.0,,,1
osm:node/10553238336,osm,Capone’s Pizzeria,43.349591,-73.6903813,,,,unknown,0.0,,,1
osm:node/10553751072,osm,Gino's Trattoria & Bar,40.6605555,-73.9608887,,,,unknown,0.0,,,1
osm:node/10554788999,osm,Meta Pizza,45.4968561,-122.6538323,Portland,portland,OR,unknown,0.0,,https://metapizzapdx.com/,1
osm:node/1055528118,osm,Carbonne's Pizza,44.7385566,-93.125803,,,,unknown,0.0,,,1
osm:node/10555295494,osm,Antonio's Pizza Express,41.4061306,-81.7692634,,,,unknown,0.0,,,1
osm:node/10555780266,osm,Little Caesars,35.6746842,-119.2285328,,,,unknown,0.0,,https://littlecaesars.com/en-us/store/11694/,1
osm:node/10555829844,osm,Alhamra,37.7648125,-122.4214001,,,,unknown,0.0,,,1
osm:node/10557655809,osm,Tiffany’s Pizza & Subs,41.4240514,-81.6107968,,,,unknown,0.0,,,1
osm:node/10557785052,osm,Jet's Pizza,42.7364077,-84.5094048,,,,unknown,0.0,,,1
osm:node/10558776968,osm,Fellows Osteria & Pizzeria,33.4641139,-111.9259337,Scottsdale,scottsdale,AZ,unknown,0.0,,https://www.fellowosteria.com/,1
osm:node/1055931339,osm,Barboni's Pizza,34.1334169,-117.5916548,,,,unknown,0.0,,,1
osm:node/10559992345,osm,Little Italy Pizza,40.7597577,-73.9837192,New York,new york,NY,unknown,0.0,,,1
osm:node/10560601308,osm,Rino D's Pizza & Wings,33.3770539,-111.7875102,,,,unknown,0.0,,,1
osm:node/10563302077,osm,Maria's Pizza,41.2776307,-73.7823618,Yorktown Heights,yorktown heights,NY,unknown,0.0,,,1
osm:node/10563302079,osm,Yorktown Pizza and Pasta,41.276802,-73.7839082,Yorktown Heights,yorktown heights,NY,unknown,0.0,,,1
osm:node/10563636916,osm,Domino's,40.6538995,-73.9593381,Brooklyn,brooklyn,NY,unknown,0.0,,https://pizza.dominos.com/new-york/brooklyn/775-flatbush-avenue,1
osm:node/10565352610,osm,Bennetts Bar & Pizzeria,41.2787264,-81.7864053,Strongsville,strongsville,OH,unknown,0.0,,,1
osm:node/10566051523,osm,Marco's Pizza,42.2450027,-83.6790096,,,,unknown,0.0,,,1
osm:node/10566453724,osm,Papa John's,38.695339,-76.5371338,Chesapeake Beach,chesapeake beach,MD,unknown,0.0,,https://locations.papajohns.com/united-states/md/20732/chesapeake-beach/3737-chesapeake-beach-road,1
osm:node/10566770737,osm,Lou Malnati's Pizzeria,33.3795981,-111.755568,,,,unknown,0.0,,,1
osm:node/10566875309,osm,Village Maria Piza,40.6085757,-74.1217943,,,,unknown,0.0,,,1
osm:node/10567134216,osm,Domino's,41.9768518,-87.7083112,Chicago,chicago,IL,unknown,0.0,,https://pizza.dominos.com/illinois/chicago/5235-n-kedzie,1
osm:node/10567134218,osm,Halal Inn,41.9693299,-87.708072,Chicago,chicago,IL,unknown,0.0,,,1
osm:node/1056940810,osm,West End Pizza,41.6717617,-72.9506723,,,,unknown,0.0,,,1
osm:node/1056944497,osm,Bristol Pizza,41.6751957,-72.950431,,,,unknown,0.0,,,1
osm:node/10570671487,osm,Ocky Fried Chicken & Pizza,40.8188351,-73.927628,,,,unknown,0.0,,,1
osm:node/10571171895,osm,Favorites Pizza & Wings,43.0427119,-78.800123,Buffalo,buffalo,NY,unknown,0.0,,,1
osm:node/10571189301,osm,Nick-N-Willy's Pizza,40.0170116,-105.2849398,Boulder,boulder,CO,unknown,0.0,,http://www.nicknwillys.com/,1
osm:node/10571998087,osm,Pizza Hut,45.1517763,-122.8373953,Woodburn,woodburn,OR,unknown,0.0,,https://locations.pizzahut.com/or/woodburn/1425-mount-hood-ave,1
osm:node/10571998323,osm,Geno's Giant Slice,33.3769014,-111.7229921,,,,unknown,0.0,,,1
osm:node/10573595046,osm,Pizzeria Santa Lucia,39.1467434,-76.8089498,Jessup,jessup,MD,unknown,0.0,,,1
osm:node/10573790068,osm,Square Pie,39.9386368,-75.1526531,Philadelphia,philadelphia,PA,unknown,0.0,,http://www.squarepiephilly.com/,1
osm:node/10573807982,osm,Giacomo's Pizza,40.7779736,-73.9543705,,,,unknown,0.0,,https://www.giacomospizzarestaurant.com/,1
osm:node/10574100042,osm,La Lucciola,44.939479,-123.038269,,,,unknown,0.0,,,1
osm:node/1057500994,osm,Jay's Pizza,43.1026121,-73.51355,,,,unknown,0.0,,,1
osm:node/10575689437,osm,Barro's Pizza,33.377629,-111.6884674,,,,unknown,0.0,,,1
osm:node/10575942934,osm,Pizza Villa,41.7166493,-80.1471971,,,,unknown,0.0,,,1
osm:node/10580043565,osm,Two Brothers Pizza,40.3239361,-76.8982087,Harrisburg,harrisburg,PA,unknown,0.0,,https://www.twoguyspizzarestaurant.com,1
osm:node/10580101030,osm,Jersey Fried Chicken and Pizza,40.719952,-74.07115,Jersey City,jersey,NJ,unknown,0.0,,,1
osm:node/1058103701,osm,Marlboro Pizza,40.334605,-74.2449261,,,,unknown,0.0,,,1
osm:node/10583625349,osm,Alfredo's Pizzeria,32.7482881,-117.1507869,San Diego,san diego,CA,unknown,0.0,,,1
osm:node/10584753200,osm,Sauce Boss,40.2677643,-76.8846163,Harrisburg,harrisburg,PA,unknown,0.0,,https://www.saucebossrestaurant.com,1
osm:node/10587469006,osm,J & M Pizza II,40.5988389,-73.9574819,,,,unknown,0.0,,,1
osm:node/10587469009,osm,Trio Ristorante,40.5994092,-73.9523266,,,,unknown,0.0,,,1
osm:node/10587580422,osm,Clemento's Pizza and Brew,42.8837353,-70.8652891,,,,unknown,0.0,,,1
osm:node/10587580437,osm,Tostimo's,42.8852638,-70.868211,Seabrook,seabrook,NH,unknown,0.0,,https://www.tostimospizza.com/,1
osm:node/10587979559,osm,Plaza Pizza,39.9392401,-75.0091035,Cherry Hill,cherry hill,NJ,unknown,0.0,,https://iloveplazapizza.com/,1
osm:node/10589555807,osm,Donatos Pizza,39.7708236,-84.1061309,Dayton,dayton,OH,unknown,0.0,,,1
osm:node/10589660657,osm,Picasso Pizza II,40.7134502,-75.2216487,,,,unknown,0.0,,,1
osm:node/10592663668,osm,Toppers Pizza,42.9587895,-88.0118328,Greenfield,greenfield,WI,unknown,0.0,,,1
osm:node/10593105650,osm,Little Caesars,41.9683053,-87.6915069,Chicago,chicago,IL,unknown,0.0,,https://littlecaesars.com/en-us/store/372/,1
osm:node/10594331187,osm,Rizzo's Roast Beef and Pizza,42.64452,-71.3031146,,,,unknown,0.0,,,1
osm:node/10594875197,osm,MOD Pizza,46.2756572,-119.186469,Pasco,pasco,WA,unknown,0.0,,https://locations.modpizza.com/usa/wa/pasco/5326-road-68,1
osm:node/10596606361,osm,Domino's,44.892726,-93.5798478,Shorewood,shorewood,MN,unknown,0.0,,https://www.dominos.com/en/,1
osm:node/10599105667,osm,Made in New York Pizza,40.7355626,-74.0061923,New York,new york,NY,unknown,0.0,,,1
osm:node/10599113564,osm,Sal's Pizza II,40.7295566,-73.9787379,New York,new york,NY,unknown,0.0,,,1
osm:node/10599837274,osm,Curry & Pie,39.2020389,-76.7346656,,,,unknown,0.0,,https://curryandpieelkridge.com,1
osm:node/10600279744,osm,Little Si Restaurant and Lounge,47.4884141,-121.7915891,North Bend,north bend,WA,unknown,0.0,,https://littlesirestaurantandlounge.com/,1
osm:node/10603081705,osm,Morris Pizzeria,40.7921137,-74.4763362,,,,unknown,0.0,,,1
osm:node/10604175106,osm,Little Caesars,44.6937838,-93.2151975,,,,unknown,0.0,,https://littlecaesars.com/en-us/store/12391/,1
osm:node/10604866855,osm,Italian Fiesta Pizza,41.614322,-87.5962255,Dolton,dolton,IL,unknown,0.0,,https://www.italianfiestapizzeria.com/dolton-chicago-pizza,1
osm:node/10605507231,osm,Velvet Elvis at La Misión,31.5396588,-110.7539903,Patagonia,patagonia,AZ,unknown,0.0,,https://www.velvetelvislamision.com/,1
osm:node/10606629986,osm,Papa John's,39.2220726,-76.8891203,Columbia,columbia,MD,unknown,0.0,,https://locations.papajohns.com/united-states/md/21044-1106/columbia/5485-harpers-farm-rd,1
osm:node/10609275730,osm,MOD Pizza,39.0374108,-76.6798194,Gambrills,gambrills,MD,unknown,0.0,,https://locations.modpizza.com/usa/md/gambrills/1350-main-chapel-way,1
osm:node/10611597221,osm,Original Pizza,40.6378213,-73.8963608,,,,unknown,0.0,,,1
osm:node/10611901517,osm,Falafel House,40.6932414,-73.9695179,,,,unknown,0.0,,,1
osm:node/10612304108,osm,Jerry’s Pizza & Restaurant,40.7203004,-74.0922624,Jersey City,jersey,NJ,unknown,0.0,,,1
osm:node/10613138464,osm,Stuft,33.9209767,-118.4157769,,,,unknown,0.0,,,1
osm:node/10613169432,osm,Prime Pizza,33.9149657,-118.3955397,,,,unknown,0.0,,https://primepizza.la/,1
osm:node/10614127561,osm,Brickolini's Pizza & Pasta,41.3814568,-74.3121059,,,,unknown,0.0,,,1
osm:node/10615497798,osm,Tri Pi Pizzeria,41.0038091,-76.4554541,Bloomsburg,bloomsburg,PA,unknown,0.0,,,1
osm:node/10615605276,osm,D P Dough Bloomsburg,41.0037291,-76.4549589,,,,unknown,0.0,,,1
osm:node/10616209663,osm,Frank’s Trattoria,41.003617,-76.4552228,,,,unknown,0.0,,,1
osm:node/10616727301,osm,Domino's,42.9938608,-89.52195,Verona,verona,WI,unknown,0.0,,,1
osm:node/10616750776,osm,Pesci's Pizza & Wings,42.9646822,-78.6944946,Buffalo,buffalo,NY,unknown,0.0,,,1
osm:node/10616780377,osm,Salvatore’s Pizzeria & Restaurant,40.7119614,-75.2197057,,,,unknown,0.0,,,1
osm:node/10617089797,osm,Di Fara,40.7070226,-74.0020088,New York,new york,NY,unknown,0.0,,https://difarapizzany.com/,1
osm:node/10617505948,osm,Little Caesars,34.2010464,-118.8676575,,,,unknown,0.0,,https://littlecaesars.com/en-us/store/9070/,1
osm:node/10621539770,osm,Bonello's,33.8492796,-118.3617495,,,,unknown,0.0,,,1
osm:node/10625147973,osm,High Alpine,39.1814601,-106.9534313,,,,unknown,0.0,,https://www.aspensnowmass.com/visit/dining/snowmass/high-alpine,1
osm:node/10625168713,osm,Up4pizza,39.1699749,-106.9698788,,,,unknown,0.0,,https://www.aspensnowmass.com/visit/dining/snowmass/up4pizza,1
osm:node/10627151275,osm,Nostrand Ave Pizza,40.6780329,-73.9495775,,,,unknown,0.0,,https://nostrandavepizza.com,1
osm:node/1062721980,osm,Papa Jones,43.0401583,-87.9333514,Milwaukee,milwaukee,WI,unknown,0.0,,,1
osm:node/10627475790,osm,That's Amore SF,37.7251897,-122.4624623,,,,unknown,0.0,,,1
osm:node/1062800075,osm,Gino's NY Pizza,42.9587294,-78.8184512,Amherst,amherst,NY,unknown,0.0,,https://www.ginosnypizzeria.com/,1
osm:node/10628119209,osm,Pizza Pizazz,47.3068595,-122.3359872,Federal Way,federal way,WA,unknown,0.0,,http://pizazzpizza.com/,1
osm:node/10632322608,osm,Giovanni's Pizza,40.2933133,-76.8919841,,,,unknown,0.0,,,1
osm:node/10633013451,osm,Nancy's Pizza,39.7965804,-89.6935828,Springfield,springfield,IL,unknown,0.0,,https://nancyspizza.com/,1
osm:node/10635089523,osm,Papa John's,39.7508387,-89.7073136,Springfield,springfield,IL,unknown,0.0,,https://locations.papajohns.com/united-states/il/62704/springfield/3422-freedom-drive,1
osm:node/10643484232,osm,Punxsy Pizza,40.944166,-78.9715981,,,,unknown,0.0,,,1
osm:node/10646620501,osm,Taster's,39.2112747,-106.9462752,,,,unknown,0.0,,https://www.tasterspizza.com/,1
osm:node/10646802347,osm,Dough Craft Pizza,43.0355867,-70.7835452,,,,unknown,0.0,,,1
osm:node/10646978425,osm,Joe's New York Pizza,43.0942988,-70.7929239,,,,unknown,0.0,,,1
osm:node/10647177056,osm,Fusion Curry Pizza,44.0573187,-123.002663,Springfield,springfield,OR,unknown,0.0,,https://fusioncurrypizza2.com,1
osm:node/10647750174,osm,LaBella Pizza,42.7902251,-73.6788354,,,,unknown,0.0,,,1
osm:node/10647780655,osm,Domino's,37.3766443,-118.421781,Bishop,bishop,CA,unknown,0.0,,https://pizza.dominos.com/california/bishop/1339-rocking-w-drive,1
osm:node/10647799107,osm,DaVinci's Pizza,41.0758862,-81.522809,,,,unknown,0.0,,,1
osm:node/10648832935,osm,Mustang Pizza,42.1930455,-71.1976256,,,,unknown,0.0,,https://www.mustangpizzanorwood.com/,1
osm:node/10649933614,osm,Pizza Hut,39.5188321,-107.319592,,,,unknown,0.0,,,1
osm:node/10650234846,osm,Blaze Pizza,33.686439,-117.1682212,,,,unknown,0.0,,,1
osm:node/10650286805,osm,Little Caesars,45.0577854,-93.3219142,,,,unknown,0.0,,,1
osm:node/10650463847,osm,Pino's,42.3365025,-71.1491797,,,,unknown,0.0,,,1
osm:node/10650944532,osm,John's Deli,40.5100279,-74.2439485,,,,unknown,0.0,,,1
osm:node/10651997588,osm,M&Y Pizzeria,42.971222,-70.836086,,,,unknown,0.0,,,1
osm:node/10653006486,osm,Papa John's,41.368392,-81.8529027,Berea,berea,OH,unknown,0.0,,https://locations.papajohns.com/united-states/oh/44017/berea/114-front-street,1
osm:node/10653587541,osm,Maribella Pizza,40.0325106,-75.6227267,Exton,exton,,unknown,0.0,,https://www.maribellapizzamenu.com/,1
osm:node/10657973358,osm,Upside Pizza,40.7241881,-73.9508843,Brooklyn,brooklyn,NY,unknown,0.0,,https://www.upsidepizza.com,1
osm:node/10660393105,osm,Vennari's Pizzeria,39.1869278,-76.8418033,,,,unknown,0.0,,https://www.vennarispizzacolumbia.com,1
osm:node/10661752442,osm,Tony's Pizza Delano,35.7749728,-119.231645,Delano,delano,CA,unknown,0.0,,https://tonyspizzadelano.com,1
osm:node/10663917740,osm,DJ's Pizza,42.8652893,-85.8677903,,,,unknown,0.0,,,1
osm:node/10665957568,osm,Mamma Mia's,42.2799306,-89.0284043,Rockford,rockford,IL,unknown,0.0,,,1
osm:node/10666075431,osm,Del-Co Drive Thru,40.3134214,-83.0857197,Delaware,delaware,OH,unknown,0.0,,https://www.delcopizza.com/,1
osm:node/10671076742,osm,Fratelli's Pizza,42.9707191,-85.6805552,Grand Rapids,grand rapids,MI,unknown,0.0,,https://fratellisgr.com/,1
osm:node/10671504970,osm,Roma Pizza,40.5984633,-73.9610082,,,,unknown,0.0,,,1
osm:node/10671987812,osm,Little Italy Ristorante,39.8520943,-82.8867257,Groveport,groveport,,unknown,0.0,,https://www.littleitalygroveport.com/,1
osm:node/10672123639,osm,MOD Pizza,39.7173406,-104.9045912,Denver,denver,CO,unknown,0.0,,https://locations.modpizza.com/usa/co/denver/63-n-quebec-st,1
osm:node/10673921469,osm,Kid's Korner Pizza,45.5048899,-91.7337655,Rice Lake,rice lake,WI,unknown,0.0,,https://www.kkpricelake.com/,1
osm:node/10674345164,osm,Infinito's Pizza Buffet,40.3794545,-75.9255268,Reading,reading,PA,unknown,0.0,,https://infinitos.securetree.com,1
osm:node/10675013462,osm,New York Pizza,39.4038025,-107.2223827,Carbondale,carbondale,CO,unknown,0.0,,https://www.nyp.pizza/carbondale,1
osm:node/10675062842,osm,Silver Slice Pizza Company,38.0377354,-107.3079974,,,,unknown,0.0,,,1
osm:node/10675089218,osm,Pizza Hut,40.5040799,-88.9941957,Normal,normal,IL,unknown,0.0,,https://locations.pizzahut.com/il/normal/706-s-main-st-(north-main),1
osm:node/10675264327,osm,Papa John's,40.5055203,-88.996036,Normal,normal,IL,unknown,0.0,,https://locations.papajohns.com/united-states/il/61761/normal/602-kingsley-st,1
osm:node/10675626354,osm,Curry Pizza House,37.7539959,-121.9396695,,,,unknown,0.0,,,1
osm:node/10676662661,osm,Dominic’s Italian Restaurant,41.1375311,-81.8606738,,,,unknown,0.0,,,1
osm:node/10677205664,osm,Brothers Office Pizzeria,47.6771545,-117.2306281,,,,unknown,0.0,,,1
osm:node/10678836988,osm,Pasquale’s Pizza,40.9036221,-74.4082229,Boonton,boonton,NJ,unknown,0.0,,https://pasqualesboonton.com,1
osm:node/10679721465,osm,Mimmo's Brick Oven Pizza,40.5512123,-74.1501161,,,,wood_or_coal,0.45,solid:'brick oven',,1
osm:node/10679803824,osm,Original Italian Pizza & Restaurant,41.8361614,-75.8669926,Montrose,montrose,PA,unknown,0.0,,,1
osm:node/10681768560,osm,Slice Pizza Kitchen,42.5472518,-83.2168189,Birmingham,birmingham,MI,unknown,0.0,,,1
osm:node/10681865109,osm,Angelina's Pizza Cafe,45.9821692,-123.9257792,,,,unknown,0.0,,,1
osm:node/10687099128,osm,The Portsmouth Bread Box,43.072112,-70.768438,Portsmouth,portsmouth,NH,unknown,0.0,,https://www.portsmouthbreadbox.net,1
osm:node/10687433005,osm,Messina's Pizza,40.6055471,-79.9256797,,,,unknown,0.0,,,1
osm:node/10688311030,osm,Bob's Trading Post,41.755566,-78.8712704,Kane,kane,PA,unknown,0.0,,,1
osm:node/10688662406,osm,MOD Pizza,34.1825245,-118.3951977,North Hollywood,north hollywood,CA,unknown,0.0,,https://locations.modpizza.com/usa/ca/north-hollywood/6160-c-laurel-canyon-blvd,1
osm:node/10689167490,osm,Chuck E. Cheese,40.6720573,-73.8565681,,,,unknown,0.0,,https://www.chuckecheese.com/howard-beach-ny/,1
osm:node/10691408294,osm,Graziano's Pizzeria & Grill,40.1722953,-76.3848322,Manheim,manheim,PA,unknown,0.0,,https://www.grazianospizzeriaandgrill.com/,1
osm:node/10693760305,osm,786 Degrees,34.230349,-118.4026072,,,,unknown,0.0,,https://786degrees.com/,1
osm:node/10695179803,osm,Sloopy’s,41.5110291,-82.9413934,,,,unknown,0.0,,,1
osm:node/10695570580,osm,Checker's Pizza,41.1684709,-82.2188258,,,,unknown,0.0,,,1
osm:node/10695624470,osm,Pizza House,41.1681841,-82.2176368,,,,unknown,0.0,,,1
osm:node/1069599262,osm,Spinners,42.6523008,-73.8122145,,,,unknown,0.0,,,1
osm:node/10696007752,osm,Domino's,40.4827446,-89.0154919,Bloomington,bloomington,IL,unknown,0.0,,https://pizza.dominos.com/illinois/bloomington/1514-west-market-street,1
osm:node/10697520363,osm,Bacio Pizza Italian Grill,40.1382705,-76.3812182,Manheim,manheim,PA,unknown,0.0,,https://baciopizza.menufy.com/,1
osm:node/10697564863,osm,Rovente Pizzeria,45.5119343,-122.6414537,Portland,portland,OR,unknown,0.0,,https://roventepizzeria.com/,1
osm:node/10697636038,osm,Pizza Kat,45.5231745,-122.6958442,Portland,portland,OR,unknown,0.0,,https://www.pizzakat.com/,1
osm:node/10697847980,osm,Pizza Factory,38.7304555,-120.7860387,,,,unknown,0.0,,,1
osm:node/10697949059,osm,Pizza Brothers,39.3761647,-76.7258616,,,,unknown,0.0,,,1
osm:node/10698045157,osm,Pizza Boli's,39.369249,-76.718497,,,,unknown,0.0,,,1
osm:node/10698094443,osm,Papa John's,39.3554431,-76.7018306,Baltimore,baltimore,MD,unknown,0.0,,https://locations.papajohns.com/united-states/md/21215/baltimore/6406-reistertown-rd,1
osm:node/10698227893,osm,Fox's Pizza,40.9459792,-78.9688614,,,,unknown,0.0,,https://www.foxspizza.com/store/pennsylvania/punxsutawney-pa/,1
osm:node/10698482170,osm,Pizza Town,40.9413498,-78.9832583,,,,unknown,0.0,,https://www.pizzatownpunxsy.com/,1
osm:node/1069945834,osm,Tony Di Maggios Pizza,37.2816164,-121.838172,San Jose,san jose,,unknown,0.0,,http://www.tonystromboli.com,1
osm:node/10699487853,osm,Lupo Rosso Pizzeria,40.7500757,-73.9489688,,,,unknown,0.0,,https://www.luporossony.com,1
osm:node/10699989884,osm,Pino's Pizzeria & Restaurant,40.5517229,-74.2121269,,,,unknown,0.0,,,1
osm:node/10700240167,osm,Jules Thin Crust,40.0097841,-75.293975,Ardmore,ardmore,PA,unknown,0.0,,https://www.julesthincrust.com/,1
osm:node/10700324824,osm,Red's Savoy Pizza,44.6960199,-93.2855683,,,,unknown,0.0,,,1
osm:node/10700595984,osm,Italia Pizza,40.6051751,-73.9789578,,,,unknown,0.0,,https://www.italiapizzarestaurantmenu.com/,1
osm:node/10705129605,osm,Town Hall Pizza,41.9466698,-86.3386166,,,,unknown,0.0,,https://townhallpizza.com,1
osm:node/10705191457,osm,Blaze Pizza,33.5986701,-117.167458,,,,unknown,0.0,,,1
osm:node/10705284694,osm,Hot House Pizza,40.7405299,-74.0401007,Hoboken,hoboken,NJ,unknown,0.0,,,1
osm:node/10705287016,osm,Unregular Pizza,40.7336168,-73.9896931,New York,new york,NY,unknown,0.0,,https://unregularpizza.com,1
osm:node/10705519856,osm,Nephews Pizza,39.2993096,-76.5736833,,,,unknown,0.0,,https://www.nephewspizzamenu.com/,1
osm:node/10706370496,osm,Sbarro,34.2382251,-118.5554645,,,,unknown,0.0,,,1
osm:node/10706376724,osm,Blaze Pizza,34.2369286,-118.5552267,,,,unknown,0.0,,,1
osm:node/10707532943,osm,MOD Pizza,43.0927642,-87.8877186,Shorewood,shorewood,WI,unknown,0.0,,https://locations.modpizza.com/usa/wi/shorewood/4151-n-oakland-ave,1
osm:node/1070770858,osm,Glen Echo Pizza & Subs,38.9693981,-77.1388313,,,,unknown,0.0,,,1
osm:node/10707730340,osm,Cafe Glace,34.0544733,-118.4413141,Los Angeles,los angeles,CA,unknown,0.0,,https://www.cafe-glace.com/,1
osm:node/10707786117,osm,Four Brothers Pizza and Restaurant,42.1814966,-73.5106014,,,,unknown,0.0,,,1
osm:node/10708265305,osm,Old Scratch Pizza,39.7172578,-84.0256913,Beavercreek,beavercreek,OH,unknown,0.0,,https://www.oldscratchpizza.com/location/beavercreek,1
osm:node/10708304834,osm,PizzAmore,44.6322973,-123.0790644,,,,unknown,0.0,,,1
osm:node/10711460708,osm,Flippin' Pizza,33.5986976,-117.178836,,,,unknown,0.0,,,1
osm:node/10712404064,osm,Pizza Boli's,38.8060941,-76.9802172,Oxon Hill,oxon hill,MD,unknown,0.0,,,1
osm:node/10712404316,osm,Pizza Boli's,38.8980178,-76.8245077,Largo,largo,MD,unknown,0.0,,,1
osm:node/10712722464,osm,Emmy Squared Pizza,34.025295,-118.4768483,Santa Monica,santa monica,CA,unknown,0.0,,https://www.emmysquaredpizza.com/location/santa-monica-brew-works-ca/,1
osm:node/10712756109,osm,Master Pizza,41.1121962,-81.6126159,,,OH,unknown,0.0,,https://www.masterpizza.com/,1
osm:node/10712868396,osm,Indian Pizzeria,42.6356199,-71.3532307,,,,unknown,0.0,,,1
osm:node/10712959073,osm,Papa John's,40.6405768,-74.0152446,Brooklyn,brooklyn,NY,unknown,0.0,,https://locations.papajohns.com/united-states/ny/11220/brooklyn/5804-5th-ave,1
osm:node/10712959080,osm,Royal King's Pizza,40.643599,-74.0116748,,,,unknown,0.0,,,1
osm:node/10713302293,osm,Domino's,38.5785012,-121.547635,West Sacramento,west sacramento,CA,unknown,0.0,,https://pizza.dominos.com/california/west-sacramento/829-harbor-blvd,1
osm:node/10713305101,osm,Grandma’s Pizza,39.0544826,-84.0535086,Williamsburg,williamsburg,OH,unknown,0.0,,,1
osm:node/10713354117,osm,Hangar 54 Pizza,40.8566888,-82.2510602,Ashland,ashland,OH,unknown,0.0,,https://hangar54.pizza/,1
osm:node/10713566510,osm,Papa Murphy's,46.9893283,-120.5491737,,,,unknown,0.0,,,1
osm:node/10717860317,osm,Andiamo Pizza,40.7336357,-73.9993159,,,,unknown,0.0,,https://www.andiamopizzanewyork.com,1
osm:node/10717880153,osm,Riverside Pizza,43.2236326,-71.7141496,Contoocook,contoocook,NH,unknown,0.0,,RiversidePizzaNH.com,1
osm:node/10717965046,osm,Papa John's,38.7842427,-76.895013,Clinton,clinton,MD,unknown,0.0,,https://locations.papajohns.com/united-states/md/20735/clinton/6455-old-alexandria-ferry-road,1
osm:node/10717965054,osm,Domino's,38.8318375,-76.9417028,Temple Hills,temple hills,MD,unknown,0.0,,https://pizza.dominos.com/maryland/temple-hills/4269-branch-ave,1
osm:node/10717965055,osm,Ledo Pizza,38.8318165,-76.9421607,,,,unknown,0.0,,,1
osm:node/10717965071,osm,Papa John's,38.8263367,-76.944501,Temple Hills,temple hills,MD,unknown,0.0,,https://locations.papajohns.com/united-states/md/20748/temple-hills/4526-st-barnabas-road,1
osm:node/10717965083,osm,Domino's,38.8075148,-76.9046137,Suitland,suitland,MD,unknown,0.0,,https://pizza.dominos.com/maryland/suitland/6000-allentown-andrews-drive-102,1
osm:node/10717965104,osm,Little Caesars,38.8569402,-76.9065052,,,,unknown,0.0,,https://littlecaesars.com/en-us/store/10436/,1
osm:node/10717985197,osm,Ledo Pizza,38.8195498,-77.0022748,,,,unknown,0.0,,,1
osm:node/10718003324,osm,Ledo Pizza,38.8487544,-76.8828403,,,,unknown,0.0,,,1
osm:node/10718003334,osm,Domino's,38.8494676,-76.8846307,District Heights,district heights,MD,unknown,0.0,,https://pizza.dominos.com/maryland/district-heights/2950-donnell-dr,1
osm:node/10718003357,osm,Ledo Pizza,38.7672984,-76.8901015,,,,unknown,0.0,,,1
osm:node/10718947265,osm,PZA Grille,42.5055212,-70.8905856,,,,unknown,0.0,,https://pzagrille.com/,1
osm:node/10718979690,osm,Panchos Tacos and Pizza,41.7047678,-87.8076462,Bridgeview,bridgeview,IL,unknown,0.0,,https://panchostacosandpizza.com,1
osm:node/10719309038,osm,Piecasso,44.4739316,-72.7147873,Stowe,stowe,VT,unknown,0.0,,https://www.piecasso.com/index.php,1
osm:node/10719801546,osm,Grandma’s Pizza,39.02798,-83.9193947,,,,unknown,0.0,,https://www.grandmaspizza.net/,1
osm:node/10720284538,osm,Pizza My Heart,37.3697813,-121.8803153,San Jose,san jose,CA,unknown,0.0,,https://www.pizzamyheart.com/location/san-jose-berryessa/,1
osm:node/10721874091,osm,Lou Malnati's Pizzeria,41.8500624,-87.8518327,,,,unknown,0.0,,,1
osm:node/10721875033,osm,Pizza Hut Delivery,41.8516327,-87.8529546,Broadview,broadview,IL,unknown,0.0,,https://locations.pizzahut.com/il/broadview/2828-s-17th-ave,1
osm:node/10721875073,osm,Al's Pizza,41.8491055,-87.8543547,,,,unknown,0.0,,,1
osm:node/10722250206,osm,Blaze Pizza,34.1909276,-118.3290177,,,,unknown,0.0,,https://locations.blazepizza.com/ca/burbank/1723-n-victory-pl,1
osm:node/10722347709,osm,Classic Pizza,40.5755008,-74.1278697,,,,unknown,0.0,,,1
osm:node/10723176892,osm,Foody Pizza & Grill,38.7917803,-76.9273585,,,,unknown,0.0,,,1
osm:node/10724327874,osm,Davanni's Pizza and Hot Hoagies,45.2116327,-93.5504482,Rogers,rogers,MN,unknown,0.0,,https://www.davannis.com/location/rogers/,1
osm:node/10724649608,osm,Hungry Howie's Pizza,34.1592288,-118.2670495,,,,unknown,0.0,,,1
osm:node/10726595908,osm,Joe Napoli,39.1576365,-84.2750798,,,,unknown,0.0,,,1
osm:node/10726866898,osm,Pasquale,41.1158287,-74.1529488,Suffern,suffern,NY,unknown,0.0,,http://www.pasqualepizzeria.com,1
osm:node/10726866899,osm,Domino's,41.1162964,-74.1529593,Suffern,suffern,NY,unknown,0.0,,https://pizza.dominos.com/new-york/suffern/38-lafayette-ave,1
osm:node/10726888405,osm,Domino's,38.3086034,-76.5314673,California,california,MD,unknown,0.0,,https://pizza.dominos.com/maryland/california/23415-three-notch-road,1
osm:node/10728433297,osm,Parktown Pizza,37.657701,-121.8973834,Pleasanton,pleasanton,CA,unknown,0.0,,https://parktownpizza.com/,1
osm:node/10728476909,osm,MOD Pizza,38.30371,-76.5233338,California,california,MD,unknown,0.0,,https://locations.modpizza.com/usa/md/california/44940-st-andrews-church-rd,1
osm:node/10728632900,osm,Nick's Place,42.4263927,-71.1961505,Lexington,lexington,MA,unknown,0.0,,https://nicksplacelexington.com/,1
osm:node/10728802464,osm,Spinato's Pizzeria,33.5541383,-111.881584,,,,unknown,0.0,,,1
osm:node/10728941349,osm,Pinky's Famous Pizza,42.4137541,-71.1108936,Medford,medford,MA,unknown,0.0,,https://www.pinkysfamouspizzamenu.com/,1
osm:node/10731316156,osm,Myers Pizza,43.809164,-76.0247061,,,,unknown,0.0,,,1
osm:node/10731811570,osm,Yopaulys New York Pizza Co,33.56914,-111.8898043,,,,unknown,0.0,,,1
osm:node/10731886336,osm,Papa Murphy's,47.4976572,-117.5653687,,,,unknown,0.0,,,1
osm:node/10732994484,osm,Beer Barrel Pizza & Grill,40.7394938,-84.1567541,Lima,lima,OH,unknown,0.0,,,1
osm:node/10733145459,osm,Stadium Pizza,40.7095798,-74.1019754,Jersey City,jersey,NJ,unknown,0.0,,,1
osm:node/10733151574,osm,Vinnie's Pizzeria III,40.7054479,-74.099131,Jersey City,jersey,NJ,unknown,0.0,,,1
osm:node/10733154297,osm,Georgio's Pizzeria,40.7137081,-74.0895015,Jersey City,jersey,NJ,unknown,0.0,,,1
osm:node/10733171678,osm,Vincent's Pizza,40.699189,-74.0958368,Jersey City,jersey,NJ,unknown,0.0,,,1
osm:node/10733191695,osm,Chuck E. Cheese,40.7570599,-73.8346901,,,,unknown,0.0,,https://locations.chuckecheese.com/us/ny/flushing/40-24-college-point-blvd.,1
osm:node/10733548628,osm,Dad's Deli,40.6743381,-74.0070633,,,,unknown,0.0,,,1
osm:node/10734023450,osm,Papa John's,33.608705,-112.1621686,,,,unknown,0.0,,,1
osm:node/10734316104,osm,Charlie's at Sunset Cove,40.7487595,-89.5325267,East Peoria,east peoria,IL,unknown,0.0,,,1
osm:node/10735920111,osm,Little Caesars,42.4315736,-83.1634692,Detroit,detroit,MI,unknown,0.0,,https://littlecaesars.com/en-us/store/22/,1
osm:node/10736100977,osm,Round Table Pizza,32.7664492,-117.1829229,,,,unknown,0.0,,,1
osm:node/10736145063,osm,Two Brothers Pizza,43.642967,-76.0699814,,,,unknown,0.0,,,1
osm:node/10737213006,osm,Domino's,48.0795428,-123.1038576,Sequim,sequim,WA,unknown,0.0,,,1
osm:node/10737423664,osm,Papa Murphy's,45.2042141,-93.5517401,,,,unknown,0.0,,,1
osm:node/10738283386,osm,Bella's,33.5744988,-117.1796483,,,,unknown,0.0,,,1
osm:node/10738351262,osm,Sbarro,41.9740811,-87.8679067,Rosemont,rosemont,IL,unknown,0.0,,,1
osm:node/10739735088,osm,Sorrento Pizza,40.2616258,-76.8590521,,,,unknown,0.0,,,1
osm:node/10740652892,osm,Papa John's,39.858394,-84.1986037,Dayton,dayton,OH,unknown,0.0,,https://locations.papajohns.com/united-states/oh/45414/dayton/8732-n-dixie-drive,1
osm:node/10741744057,osm,Little Caesars,40.2434142,-76.9025283,Lemoyne,lemoyne,PA,unknown,0.0,,https://littlecaesars.com/en-us/store/10354,1
osm:node/10741874105,osm,Green Onion Pizza Restaurant,41.599991,-71.9886361,,,,unknown,0.0,,https://www.greenonionlisbon.com/,1
osm:node/10742587491,osm,Regina Pizzeria,42.2210814,-71.0254508,,,,unknown,0.0,,,1
osm:node/10742852764,osm,Surrell's Pizza & Pub,41.5995598,-71.9805527,,,,unknown,0.0,,,1
osm:node/10743173656,osm,Antonio’s Pizza By The Slice Kitchen & Bar - Worcester,42.2615974,-71.8226925,Worcester,worcester,MA,unknown,0.0,,https://antoniospizza.com/worcester/,1
osm:node/10743605341,osm,Antonio's Pizzeria & Ice Cream,40.6897092,-75.2524485,Easton,easton,PA,unknown,0.0,,,1
osm:node/10743747730,osm,Smokin' Oak,39.9403481,-105.1268824,Broomfield,broomfield,CO,unknown,0.0,,,1
osm:node/10744023430,osm,DeLeo Bros. Pizza,47.6007289,-122.3326611,Seattle,seattle,WA,unknown,0.0,,,1
osm:node/10744422472,osm,Tomahawk Pizza,38.9888707,-83.3781763,,,,unknown,0.0,,,1
osm:node/10744639070,osm,Pizza Italia,34.0456057,-118.2537266,,,,unknown,0.0,,,1
osm:node/10744639071,osm,Corleone Pizza,34.0453547,-118.253902,,,,unknown,0.0,,,1
osm:node/10746479425,osm,Papa Romano's,42.5454634,-83.2459614,Birmingham,birmingham,MI,unknown,0.0,,,1
osm:node/10746685294,osm,Olio Wood Fired Pizzeria,34.0507456,-118.2489414,Los Angeles,los angeles,CA,wood,1.0,wood:'wood fired'; wood:'wood fire',,1
osm:node/10746993474,osm,Little Caesars,35.5008028,-119.2724166,Shafter,shafter,CA,unknown,0.0,,https://littlecaesars.com/en-us/store/7995/,1
osm:node/10748312887,osm,Rosati's Pizza,39.6145015,-104.7565085,Centennial,centennial,CO,unknown,0.0,,,1
osm:node/10748442156,osm,Barro's Pizza,33.7858205,-112.1183996,Phoenix,phoenix,AZ,unknown,0.0,,,1
osm:node/10748920014,osm,Red Sauce Pizza,45.5483939,-122.6152298,Portland,portland,OR,unknown,0.0,,https://redsaucepizza.com,1
osm:node/10749755007,osm,Jay's Chicken & Pizza,40.6487895,-74.2239587,,,,unknown,0.0,,,1
osm:node/10750288136,osm,Mill House Market,43.5567535,-76.1158111,Pulaski,pulaski,NY,unknown,0.0,,http://www.millhousemarketny.com/,1
osm:node/10750698544,osm,Papa Murphy's,39.6198262,-104.7717232,Centennial,centennial,CO,unknown,0.0,,,1
osm:node/10751555809,osm,Pizza Academy,42.9789849,-70.9612788,Exeter,exeter,NH,unknown,0.0,,https://pizzaacademy.com/,1
osm:node/10752030604,osm,Pizza y Pan pa'ya,41.9530748,-87.786002,Chicago,chicago,IL,unknown,0.0,,https://www.pizzaypanpayachicago.com/,1
osm:node/10753321260,osm,Mama Mia Pizzeria & Cucina,40.5507734,-74.2106828,,,,unknown,0.0,,,1
osm:node/10754043786,osm,Pizza Bella,42.5401024,-71.6143176,Devens,devens,MA,unknown,0.0,,https://www.pizzabelladevens.com/,1
osm:node/10754442482,osm,Domino's,47.1449288,-122.4340828,Tacoma,tacoma,WA,unknown,0.0,,https://pizza.dominos.com/washington/tacoma/12221-pacific-ave,1
osm:node/10754588405,osm,Tyler’s Pizzeria & Bakery,39.9558008,-82.7975331,,,,unknown,0.0,,,1
osm:node/10755065330,osm,Nizario's,37.7813705,-122.4607397,,,,unknown,0.0,,https://www.nizariosgeary.com/,1
osm:node/10755256092,osm,Little Caesars,41.8275114,-87.7930525,Berwyn,berwyn,IL,unknown,0.0,,https://littlecaesars.com/en-us/store/8734/,1
osm:node/10755655592,osm,Akropolis,43.3023673,-76.1520484,,,,unknown,0.0,,,1
osm:node/10755686547,osm,Nonna Dina Pizzeria,43.2860785,-76.1458176,,,,unknown,0.0,,,1
osm:node/10755941576,osm,Queen Pizza II,40.7363193,-74.1692229,Newark,newark,NJ,unknown,0.0,,https://www.queenpizzaii.com/?utm_source=organic_bing&utm_medium=bing_pw,1
osm:node/10756173805,osm,Sexton’s Pizza,40.0420768,-82.8630863,,,,unknown,0.0,,,1
osm:node/10757809861,osm,Rocco Pizza III,40.6827492,-73.940661,,,,unknown,0.0,,,1
osm:node/10759212505,osm,Roma's Breakfast and Pizzeria,39.1846,-76.8708073,,,,unknown,0.0,,https://www.romascolumbia.com,1
osm:node/10759352712,osm,Seppe Pizza Bar,40.6290468,-74.0742209,,,,unknown,0.0,,,1
osm:node/10759516702,osm,Di Farina Pizzeria,40.6240437,-74.1473518,Staten Island,staten island,NY,unknown,0.0,,https://www.difarinapizzeria.com/,1
osm:node/10759517314,osm,JJ Pizza & Restaurant,40.6253082,-74.1491331,,,,unknown,0.0,,,1
osm:node/10759713949,osm,York Pizza Subs & Wings,39.3298438,-76.6092907,Baltimore,baltimore,MD,unknown,0.0,,https://www.yorkpizzamd.com/,1
osm:node/10759831072,osm,Mama Rosaria's Pizzeria Restaurant,40.6264188,-74.1609932,,,,unknown,0.0,,,1
osm:node/10759831080,osm,J and B Restaurant,40.6262204,-74.1632549,Staten Island,staten island,NY,unknown,0.0,,https://jbpizza.com/,1
osm:node/10759848843,osm,Basil Cucina & Catering,40.6248133,-74.1449469,,,,unknown,0.0,,,1
osm:node/10759848854,osm,Brother's Pizza,40.6254993,-74.1438618,Staten Island,staten island,NY,unknown,0.0,,https://www.brotherspizzeriaofstatenisland.com/,1
osm:node/10760238497,osm,Boardwalk Pizza,42.2992194,-71.0307333,,,,unknown,0.0,,,1
osm:node/10761434718,osm,Somerset Famous Pizza,41.7238915,-71.1791064,Somerset,somerset,MA,unknown,0.0,,https://www.somersetfamouspizza.com/,1
osm:node/1076165565,osm,Toppers Pizza,43.0591247,-87.8862107,Milwaukee,milwaukee,WI,unknown,0.0,,https://www.toppers.com/Locations/Location-Detail?locationId=19&lat=43.0439776&lng=-87.8991514,1
osm:node/10762052105,osm,DiCapri Pizzeria,42.4760216,-71.4738897,Acton,acton,MA,unknown,0.0,,https://www.dicapripizza.com/,1
osm:node/10762284612,osm,Joe's Pizza,39.7445435,-75.2258039,Mullica Hill,mullica hill,NJ,unknown,0.0,,,1
osm:node/10764506005,osm,Trato,39.1696659,-76.8650748,,,,unknown,0.0,,https://trattoriaenrico.com,1
osm:node/10766882733,osm,Michelangelo's Pizza,40.036505,-75.7680538,,,,unknown,0.0,,https://www.michelangelopizzadowningtown.com,1
osm:node/10766983814,osm,Domino's,46.8762184,-96.7546784,Moorhead,moorhead,MN,unknown,0.0,,https://pizza.dominos.com/minnesota/moorhead/1530-1st-ave-n,1
osm:node/10769247477,osm,Reggiano's II Brick Oven Pizza & Cafe,40.5388525,-74.1484353,Staten Island,staten island,NY,wood_or_coal,0.45,solid:'brick oven',https://reggianosbrickoven.com/,1
osm:node/10769381330,osm,Parry's Pizzeria And Bar,40.1475241,-105.1290101,,,,unknown,0.0,,,1
osm:node/10769891609,osm,Pizzeria Da Laura,37.8713192,-122.2680936,Berkeley,berkeley,CA,unknown,0.0,,https://www.pizzeriadalaura.com/,1
osm:node/1077038918,osm,Ino's Pizzeria,41.9904402,-87.6697339,Chicago,chicago,IL,unknown,0.0,,,1
osm:node/10771770503,osm,Elegante Pizzeria,40.6330028,-74.0213762,,,,unknown,0.0,,,1
osm:node/10773907626,osm,What Up Dough Pizza,34.168146,-118.3468044,Burbank,burbank,,unknown,0.0,,https://www.whatupdough.com,1
osm:node/10773959533,osm,Pete's Pizzeria,40.630941,-74.0281675,,,,unknown,0.0,,https://www.petespizzabayridge.com,1
osm:node/10776477973,osm,Papa John's,40.742107,-73.8744462,Elmhurst,elmhurst,NY,unknown,0.0,,https://locations.papajohns.com/united-states/ny/11373/elmhurst/90-35-corona-avenue,1
osm:node/10776708157,osm,Domino's,40.7422934,-73.874187,Elmhurst,elmhurst,NY,unknown,0.0,,https://pizza.dominos.com/new-york/elmhurst/90-45-corona-avenue,1
osm:node/10776717440,osm,Mama's Boy,37.8113176,-122.26635,Oakland,oakland,CA,unknown,0.0,,https://www.mamasboypizza.com/,1
osm:node/10777008222,osm,Little Caesars,42.1954747,-83.3074448,,,,unknown,0.0,,https://littlecaesars.com/en-us/store/11879/,1
osm:node/10777014287,osm,Original Roma Pizza,40.780003,-73.9533458,,,,unknown,0.0,,https://slicelife.com/restaurants/ny/new-york/10128/original-roma-pizza/menu,1
osm:node/10777024488,osm,Jet's Pizza,42.1658224,-83.2673813,,,,unknown,0.0,,,1
osm:node/10778844103,osm,Forage,45.3001789,-122.980806,,,,unknown,0.0,,,1
osm:node/10778928105,osm,Domino's,45.3004433,-122.9719834,Newberg,newberg,OR,unknown,0.0,,https://pizza.dominos.com/oregon/newberg/717-east-1st-street,1
osm:node/10780254767,osm,Giant Bambino's Pizza,32.8511279,-116.9323746,Lakeside,lakeside,CA,unknown,0.0,,https://www.giantbambinospizzamenu.com/,1
osm:node/10780768260,osm,Ray's Pizza,33.6272991,-111.89317,,,,unknown,0.0,,,1
osm:node/1078144516,osm,Round Table Pizza,39.3267994,-120.2045508,,,,unknown,0.0,,,1
osm:node/10781539928,osm,Santarpio's Pizza,42.3676544,-71.0146816,,,,unknown,0.0,,,1
osm:node/10782671719,osm,Rudy's Gourmet Pizza,45.4984062,-122.6408784,Portland,portland,OR,unknown,0.0,,http://www.rudyspizzapdx.com/,1
osm:node/10783559654,osm,Cybelle's Pizza,37.8265453,-122.2106402,,,,unknown,0.0,,,1
osm:node/1078379408,osm,Papa John's,37.259245,-121.8915349,San Jose,san jose,,unknown,0.0,,,1
osm:node/1078379416,osm,Round Table Pizza,37.2620865,-121.877582,San Jose,san jose,,unknown,0.0,,,1
osm:node/10785134929,osm,Fat Tomato Pizza,33.7742176,-118.3754468,,,,unknown,0.0,,,1
osm:node/10785153037,osm,MOD Pizza,33.7760717,-118.3762872,Rolling Hills Estates,rolling hills estates,CA,unknown,0.0,,https://locations.modpizza.com/usa/ca/rolling-hills-estates/3a-peninsula-center,1
osm:node/10786022256,osm,Brooklyn's Finest Pizza,39.7463841,-104.9934535,Denver,denver,CO,unknown,0.0,,https://16thst.brooklynsfinestpizza303.com/,1
osm:node/10788141205,osm,Double D's Sourdough Pizzeria and Taphouse,39.927646,-105.1336971,Broomfield,broomfield,CO,unknown,0.0,,https://doubledspizza.com/,1
osm:node/10788340468,osm,48 North Pizzeria,45.4771323,-122.673731,,,,unknown,0.0,,https://www.48northpizzeria.com/,1
osm:node/10788449835,osm,Pop Pizza,45.5170756,-122.6595573,Portland,portland,OR,unknown,0.0,,https://www.poppizza.co/,1
osm:node/10788451652,osm,Geo's Pizzeria & Restaurant,40.7023237,-73.8172603,,,,unknown,0.0,,,1
osm:node/10788794835,osm,Sbarro,45.5553366,-94.2117707,,,,unknown,0.0,,,1
osm:node/10789037897,osm,Domino's,42.2710902,-71.0302323,,,,unknown,0.0,,,1
osm:node/10790634968,osm,Fontana's Pizza & Sandwich Shoppe,42.8745467,-78.7935842,Buffalo,buffalo,NY,unknown,0.0,,,1
osm:node/1079085419,osm,Buono Pizza,40.6174178,-74.2952424,,,,unknown,0.0,,,1
osm:node/1079085426,osm,Pompeii Pizza,40.6194456,-74.2978227,,,,unknown,0.0,,,1
osm:node/10791083576,osm,Brooklyn Deli,40.7570456,-73.9869703,,,,unknown,0.0,,https://brooklyndelicatessen.com,1
osm:node/10791170800,osm,Slice on Broadway,40.459915,-79.9247656,Pittsburgh,pittsburgh,PA,unknown,0.0,,,1
osm:node/10792310232,osm,Domino's,40.1781629,-105.1020004,Longmont,longmont,CO,unknown,0.0,,https://pizza.dominos.com/colorado/longmont/1106-main-street,1
osm:node/10794908006,osm,Domino's,39.1001631,-76.8223339,Laurel,laurel,MD,unknown,0.0,,https://pizza.dominos.com/maryland/laurel/3515-laurel-fort-meade-rd,1
osm:node/10795656581,osm,Domino's,33.3903262,-112.1691034,Laveen,laveen,AZ,unknown,0.0,,https://pizza.dominos.com/arizona/laveen/6170-s-51st-ave-ste-101,1
osm:node/10795657689,osm,Curry Pizza House,33.6554654,-117.7012758,Lake Forest,lake forest,CA,unknown,0.0,,https://currypizzahouse.com/,1
osm:node/10795888597,osm,Brizio Pizza,33.6468264,-117.688687,Lake Forest,lake forest,CA,unknown,0.0,,https://briziopizza.com/,1
osm:node/10797138111,osm,Pizza Ranch,45.5487369,-94.2161564,,,,unknown,0.0,,,1
osm:node/10797403540,osm,Gino's,40.6299435,-74.0226208,,,,unknown,0.0,,,1
osm:node/10797724437,osm,Pizza Harbor,39.2685232,-76.6130867,Baltimore,baltimore,MD,unknown,0.0,,https://pizza-harbor.com/,1
osm:node/10799617088,osm,Hilltop Carryout,39.273084,-76.605131,Baltimore,baltimore,MD,unknown,0.0,,https://hilltopcarryout.com/,1
osm:node/10799826663,osm,Bridge Street Pizza,40.0997717,-83.113294,Dublin,dublin,OH,unknown,0.0,,http://www.bridgestreetpizza.us/,1
osm:node/10800147565,osm,Krispy Pizza,40.2393375,-74.2813321,Freehold,freehold,NJ,unknown,0.0,,https://krispypizza.com/freehold-menu,1
osm:node/10801204184,osm,A Pizza Pie,41.963096,-87.6557597,Chicago,chicago,IL,unknown,0.0,,https://www.apizzapie.com/,1
osm:node/10802036446,osm,Jet's Pizza,39.9211489,-82.7822537,,,,unknown,0.0,,,1
osm:node/10802510408,osm,Pieology Pizzeria,38.5771854,-121.4858188,Sacramento,sacramento,CA,unknown,0.0,,https://pieology.com/pizza-near-me/?rest_id=8023,1
osm:node/10803083076,osm,LaVista Pizza,40.7644551,-73.9917249,New York,new york,NY,unknown,0.0,,https://www.lavistapizza.com/,1
osm:node/10803109653,osm,Little Italy Pizza,40.6981885,-73.9376919,,,,unknown,0.0,,,1
osm:node/10803380273,osm,Pizzarena West Nyack,41.0942883,-73.9681501,West Nyack,west nyack,NY,unknown,0.0,,http://westnyackpizzarena.com/,1
osm:node/10803406033,osm,Marzano's Pizza Pie,45.718383,-123.9391883,,,,unknown,0.0,,,1
osm:node/10803598875,osm,Little Caesars,42.4048711,-82.9651001,Detroit,detroit,MI,unknown,0.0,,https://littlecaesars.com/en-us/store/16/,1
osm:node/10804374952,osm,Buddy's Pizza,42.3918602,-83.5109153,,,,unknown,0.0,,,1
osm:node/10805466793,osm,Pizza Hut,42.9841844,-78.872388,Buffalo,buffalo,NY,unknown,0.0,,https://locations.pizzahut.com/ny/buffalo/3669-delaware-ave,1
osm:node/10805539785,osm,Woodside Pizza,40.7419754,-73.9046115,Woodside,woodside,NY,unknown,0.0,,https://www.woodsidepizzany.com/,1
osm:node/10805673741,osm,99¢ Supreme Pizza,40.6802701,-73.9496747,,,,unknown,0.0,,,1
osm:node/10809677405,osm,Domino's,34.1856516,-118.3099933,Burbank,burbank,CA,unknown,0.0,,https://pizza.dominos.com/california/burbank/433-n-glenoaks-blvd,1
osm:node/10812631007,osm,Triple Beam Pizza,34.0777418,-118.2600195,,,,unknown,0.0,,https://www.triplebeampizza.com/location/echo-park/,1
osm:node/10812659947,osm,Santora's Hot Wings,33.5524463,-117.6714697,Mission Viejo,mission viejo,CA,unknown,0.0,,,1
osm:node/10813064057,osm,Shield's Pizza,42.5483507,-83.1679556,,,,unknown,0.0,,,1
osm:node/10814985506,osm,Big Mama and Papas Pizza,34.1767765,-118.2979294,,,,unknown,0.0,,https://bmpp.com/index.php,1
osm:node/10815399305,osm,Maria's Sub & Pizza,42.1932976,-70.7261978,,,,unknown,0.0,,,1
osm:node/10815607007,osm,Coral Cafe,34.1760695,-118.3467001,Burbank,burbank,CA,unknown,0.0,,https://www.instagram.com/coralcafeburbank,1
osm:node/10815646413,osm,Stevie's Famous,47.4668798,-122.3455887,Burien,burien,,unknown,0.0,,https://steviesfamous.com,1
osm:node/10816741707,osm,Bison Creek Pizza,47.4661383,-122.3433544,Burien,burien,,unknown,0.0,,,1
osm:node/10817016174,osm,Little Caesars,41.4160011,-81.5300724,Maple Heights,maple heights,OH,unknown,0.0,,https://littlecaesars.com/en-us/store/20427/,1
osm:node/10817038654,osm,Señor Muerto’s Mexican Pizza,33.5245507,-112.1094826,,,,unknown,0.0,,,1
osm:node/10817156300,osm,East of Chicago Pizza,41.3080149,-82.9696471,,,,unknown,0.0,,,1
osm:node/10817209390,osm,Papa Murphy's,43.3872039,-123.3356611,Sutherlin,sutherlin,OR,unknown,0.0,,https://locations.papamurphys.com/or/sutherlin/145-myrtle-street,1
osm:node/10817714724,osm,Thunderbolt Pizza,33.8315817,-118.1854024,Long Beach,long beach,CA,unknown,0.0,,https://thunderboltpizza.com/,1
osm:node/10817729568,osm,Domino's,39.141818,-123.2066514,UKiah,ukiah,CA,unknown,0.0,,https://pizza.dominos.com/california/ukiah/728-south-state-street,1
osm:node/10817777109,osm,La Parolaccia Osteria Italiana,33.7652583,-118.1569754,Long Beqch,long beqch,CA,unknown,0.0,,https://laparolacciausa.com/,1
osm:node/10819058807,osm,Barro's Pizza,33.6271001,-112.0663714,Phoenix,phoenix,AZ,unknown,0.0,,https://barrospizza.com/locations/phoenix-7th-st-coral-gables-dr/,1
osm:node/10820158992,osm,Manhattan Beach Pizza,40.5785818,-73.9380957,,,,unknown,0.0,,https://www.manhattanbeachpizza.com/,1
osm:node/10820196757,osm,Anthony's Pizza,42.257825,-83.7281105,Ann Arbor,ann arbor,MI,unknown,0.0,,https://www.anthonysgourmet.com/,1
osm:node/10820574899,osm,Boston Pizza,32.8811012,-111.696167,,,,unknown,0.0,,,1
osm:node/10820647034,osm,Little Caesars,32.8803052,-111.695722,,,,unknown,0.0,,https://littlecaesars.com/en-us/store/9985/,1
osm:node/10822267607,osm,Domino's Pizza,45.5343185,-122.4856067,Gresham,gresham,OR,unknown,0.0,,https://www.dominos.com/,1
osm:node/10822333576,osm,Ranch Pizza Southeast PDX,45.5066364,-122.6549815,Portland,portland,OR,unknown,0.0,,https://www.ranchpdx.com/ranch-se,1
osm:node/10822776523,osm,Bay Ridge Pizza,40.6278872,-74.023467,,,,unknown,0.0,,https://www.bayridgepizza.com,1
osm:node/10822825625,osm,Rocco's,40.6268792,-74.0238835,,,,unknown,0.0,,,1
osm:node/10823387226,osm,Kings West Coast Pizzeria,37.7037114,-122.4629988,Daly City,daly,CA,unknown,0.0,,https://www.kingswcpizza.com/,1
osm:node/10824087447,osm,Rosati's,41.9470063,-87.6878284,Chicago,chicago,IL,unknown,0.0,,,1
osm:node/10824737763,osm,pán,40.6941901,-73.9022477,,,,unknown,0.0,,https://pan-nyc.com/,1
osm:node/10824753107,osm,Domino's,38.9279371,-104.8312353,Colorado Springs,colorado springs,CO,unknown,0.0,,https://pizza.dominos.com/colorado/colorado-springs/205-c-rockrimmon-blvd,1
osm:node/10824940736,osm,Talucci’s Pizza,40.7481073,-73.4291575,Farmingdale,farmingdale,NY,unknown,0.0,,,1
osm:node/10825166986,osm,Dante’s Pizza,40.7101578,-73.848266,,,NY,unknown,0.0,,,1
osm:node/10825166995,osm,Dee's Wood Fired Pizza & Kitchen,40.7097266,-73.8453059,Forest Hills,forest hills,NY,wood,1.0,wood:'wood fired'; wood:'wood fire',https://www.deesnyc.com/,1
osm:node/10827748892,osm,Pizza Hut,38.8943672,-104.8500819,Colorado Springs,colorado springs,CO,unknown,0.0,,https://locations.pizzahut.com/co/colorado-springs/4331-centennial-blvd,2
osm:node/10828220909,osm,Brickstone Cafe,42.4144895,-71.1503913,Arlington,arlington,MA,unknown,0.0,,,1
osm:node/10829677006,osm,La Nonna's Pizza,40.8323685,-73.3905392,Huntington Station,huntington station,NY,unknown,0.0,,https://lanonnaspizzeria.com/,1
osm:node/10830063339,osm,Carbone's Pizzeria,44.8370071,-93.2499219,Bloomington,bloomington,MN,unknown,0.0,,https://www.carbones.com/locations/bloomington/,1
osm:node/1083060560,osm,Brick 3 Pizza,43.0446182,-87.914592,,,,unknown,0.0,,http://brick3pizza.com,1
osm:node/10830864084,osm,Boston Pizza Cupcakes,42.2307796,-71.1771212,,,,unknown,0.0,,,1
osm:node/10830939087,osm,Fox's Pizza Den,40.0812147,-79.7603216,Perryopolis,perryopolis,PA,unknown,0.0,,https://www.foxspizza.com/store/pennsylvania/perryopolis-pa/,1
osm:node/10830987692,osm,Abe Cappana's Pizza,44.2901517,-121.5483597,Sisters,sisters,OR,unknown,0.0,,,1
osm:node/10834126657,osm,Oregano Brooklyn,40.7190899,-73.958676,Brooklyn,brooklyn,NY,unknown,0.0,,https://www.oreganowilliamsburg.com/,1
osm:node/10834446659,osm,Independent Pizzeria,43.2296646,-76.2997955,,,,unknown,0.0,,,1
osm:node/10837806873,osm,PizzaQ,41.7532215,-87.9433133,,,,unknown,0.0,,,1
osm:node/10837806922,osm,Stix and Stones,41.7522038,-87.9130765,,,,unknown,0.0,,,1
osm:node/10838028983,osm,Tony's Pizzeria,40.7253798,-73.946272,Brooklyn,brooklyn,NY,unknown,0.0,,,1
osm:node/10838958947,osm,Fini Pizza,40.7134723,-73.9618052,Brooklyn,brooklyn,NY,unknown,0.0,,https://www.finipizza.com/,1
osm:node/10840174606,osm,Pomo Pizzeria,33.5668963,-111.925355,Scottsdale,scottsdale,AZ,unknown,0.0,,,1
osm:node/10840433651,osm,Punch Pizza,44.9714569,-93.4968713,,,,unknown,0.0,,,1
osm:node/10841362397,osm,New York Pizzeria,33.9297715,-116.9707949,Beaumont,beaumont,CA,unknown,0.0,,https://www.newyorkpizzeriabeaumont.com,1
osm:node/10844164147,osm,Little Caesars,44.7833,-68.753238,,,,unknown,0.0,,https://littlecaesars.com/en-us/store/10745/,1
osm:node/10844443810,osm,Luzzo's La Pizza Napoletana,40.7839055,-73.9525525,,,,wood,0.45,woodlean:'napoletana',https://www.luzzosuppereastside.com/,1
osm:node/10845481406,osm,Palo Mesa Pizza,35.1227151,-120.5811984,Arroyo Grande,arroyo grande,CA,unknown,0.0,,https://www.palomesapizza.com/locations,1
osm:node/10846979727,osm,Benny's Pizza Joint,44.3170441,-123.2971367,Monroe,monroe,OR,unknown,0.0,,,1
osm:node/10847061351,osm,Domino's,44.2602279,-121.1780109,Redmond,redmond,OR,unknown,0.0,,https://pizza.dominos.com/oregon/redmond/1604-s-highway-97,1
osm:node/10848141754,osm,Domino's,41.6442075,-87.5393626,Burnham,burnham,IL,unknown,0.0,,https://pizza.dominos.com/illinois/burnham/13850-brainard-ave/,1
osm:node/10853783839,osm,Peter Piper Pizza,33.48003,-111.9961,Phoenix,phoenix,AZ,unknown,0.0,,,1
osm:node/10853973432,osm,Tower of Pizza & Mexican,39.9356692,-91.3723367,,,,unknown,0.0,,,1
osm:node/10857350906,osm,Streets of New York,33.6275016,-111.8870489,,,,unknown,0.0,,,1
osm:node/10857789088,osm,Papa Gino's,42.1566467,-71.9641908,,,,unknown,0.0,,,1
osm:node/10858012964,osm,Anthony Francos Pizza,40.8344561,-74.2255008,Verona,verona,NJ,unknown,0.0,,https://afpizza.com/locations/anthony-francos-verona/,1
osm:node/10858076543,osm,Apna Pizza,39.0851499,-77.2251367,Montgomery,montgomery,MD,unknown,0.0,,https://apnapizzadmv.com,1
osm:node/10858327800,osm,Domino's,33.5990482,-117.2405579,Wildomar,wildomar,CA,unknown,0.0,,https://pizza.dominos.com/california/wildomar/24088-clinton-keith-road-suite-105,1
osm:node/10858986954,osm,Luna piza,40.5987472,-74.3294257,Colonia,colonia,NJ,unknown,0.0,,,1
osm:node/10859142438,osm,Soma Pizza,37.7816782,-122.3960799,,,,unknown,0.0,,,1
osm:node/10859142556,osm,Empire Pizza,37.7866379,-122.4018245,,,,unknown,0.0,,,1
osm:node/10861401519,osm,Italian Gardens,39.4116914,-76.6192007,,,,unknown,0.0,,,1
osm:node/10862829400,osm,Pizza Ponte,37.8360798,-122.2628085,,,,unknown,0.0,,,1
osm:node/10866003289,osm,Cosmo's Italian Restaurant,33.5830232,-117.6331175,,,,unknown,0.0,,,1
osm:node/10866017955,osm,Papa John's,46.2927661,-119.2995956,Richland,richland,WA,unknown,0.0,,https://locations.papajohns.com/united-states/wa/99354/richland/2187-van-giesen-st,1
osm:node/1086646836,osm,Pizzzzzaroma,42.8360181,-71.4916104,,,,unknown,0.0,,,1
osm:node/10866525266,osm,The Front Porch,43.2487336,-70.599438,Ogunquit,ogunquit,ME,unknown,0.0,,https://www.thefrontporch.com/,1
osm:node/10867924306,osm,Papa Gino's,42.1396772,-72.024816,,,,unknown,0.0,,,1
osm:node/10869032915,osm,Pickup's Pizza,39.6526532,-106.8313312,Eagle,eagle,CO,unknown,0.0,,https://www.pickupspizza.com/,1
osm:node/10869400638,osm,Lefty's Pizza Kitchen,42.0768084,-87.7075401,Wilmette,wilmette,IL,unknown,0.0,,https://www.leftyspizzakitchen.com/,1
osm:node/10869749682,osm,CRUST,42.4474905,-73.244146,,,,unknown,0.0,,https://www.crustpz.com/,1
osm:node/10870055226,osm,Domino's,47.5773715,-122.1679985,Bellevue,bellevue,WA,unknown,0.0,,https://pizza.dominos.com/washington/bellevue/3710c-factoria-blvd-se,1
osm:node/10872121931,osm,Little Caesars,42.9000216,-85.7237522,,,,unknown,0.0,,https://littlecaesars.com/en-us/store/8227/,1
osm:node/10874976866,osm,Slam Dunk Pizza,39.3912202,-123.3477446,,,,unknown,0.0,,,1
osm:node/10876333667,osm,Hickory Station Pizzeria,39.56738,-76.3547201,Bel Air,bel air,MD,unknown,0.0,,https://www.hickorystation.net/,1
osm:node/10877069502,osm,Martoni's Fire Baked Pizza,40.3602451,-80.6148041,,,,unknown,0.0,,,1
osm:node/1087784572,osm,Pizzeria Luigi,32.7176658,-117.1400458,,,,unknown,0.0,,,1
osm:node/1087854911,osm,Papa John's,44.5229916,-88.0988373,Green Bay,green bay,WI,unknown,0.0,,https://locations.papajohns.com/united-states/wi/54304/green-bay/1111-packerland-drive,1
osm:node/10879372244,osm,Primoz Pizza,41.5010003,-81.5399559,University Heights,university heights,OH,unknown,0.0,,,1
osm:node/10879725157,osm,Figaro's Pizza,44.5403843,-123.3659416,,,,unknown,0.0,,,1
osm:node/10879797602,osm,Pizza Hut,40.1854998,-105.103009,Longmont,longmont,CO,unknown,0.0,,https://locations.pizzahut.com/co/longmont/1515-main-st,1
osm:node/10879801813,osm,Little Caesars,40.1905159,-105.1039849,Longmont,longmont,CO,unknown,0.0,,https://littlecaesars.com/en-us/store/2091/,1
osm:node/10881152621,osm,Starvin Marvin Pizzeria and Grill,39.391776,-77.4229008,Frederick,frederick,MD,unknown,0.0,,https://starvinmarvinspizza.com/frederick-home,1
osm:node/10886214950,osm,Domino's,39.2773013,-76.8384639,Ellicott City,ellicott,MD,unknown,0.0,,https://pizza.dominos.com/maryland/ellicott-city/9469-baltimore-national-pike,1
osm:node/10887861394,osm,Saraphino's,42.960071,-87.8715164,Saint Francis,saint francis,WI,unknown,0.0,,,1
osm:node/10891544183,osm,1951 West,44.5418194,-88.0719655,,,,unknown,0.0,,,1
osm:node/10892141257,osm,Urban Field Pizza & Market,40.1616143,-105.102259,,,,unknown,0.0,,,1
